ID,lat_alloc,lon_alloc,area_alloc,lat_ori,lon_ori,loc_km_diff,ix,iy,Station Name,River Name,Memo
1,44.074,142.74,140.469,44.075,142.74,0.085,16373,4267,茂志利,天塩川,
2,44.109,142.598,398.936,44.109,142.598,0.009,16271,4242,奥士別,天塩川,
3,44.119,142.534,549.387,44.119,142.534,0.028,16225,4235,剣和,天塩川,
4,44.191,142.416,1.266,44.19,142.415,0.133,16140,4183,九十九橋,天塩川,
5,44.297,142.365,1430.448,44.296,142.365,0.068,16103,4107,西多寄,天塩川,
6,44.36,142.442,1725.93,44.361,142.443,0.082,16159,4061,名寄大橋,天塩川,
7,44.481,142.335,2901.605,44.481,142.336,0.055,16082,3974,美深橋（下流）,天塩川,
8,44.481,142.335,2901.605,44.481,142.336,0.055,16082,3974,美深橋（上流）,天塩川,
9,44.594,142.302,3219.196,44.593,142.302,0.084,16058,3893,恩根内,天塩川,
10,44.705,142.267,3411.065,44.705,142.267,0.033,16033,3813,茨内,天塩川,
11,44.809,142.07,4061.501,44.809,142.071,0.068,15891,3738,誉平,天塩川,
12,44.898,142.006,4178.225,44.896,142.006,0.214,15845,3674,新問寒別橋,天塩川,
13,44.927,141.878,19.25,44.926,141.879,0.127,15753,3653,円山,天塩川,
14,44.997,141.815,8.838,44.996,141.816,0.125,15707,3603,天塩大橋,天塩川,
15,44.892,141.741,16.486,44.892,141.74,0.086,15654,3678,天塩河口,天塩川,
16,45.003,141.71,589.677,45.004,141.71,0.067,15632,3598,音類橋,サロベツ川,
17,45.217,141.722,185.223,45.217,141.722,0.054,15640,3444,サロベツ川,サロベツ川,
18,44.885,141.913,92.717,44.886,141.913,0.067,15778,3683,上雄信内,雄信内川,
19,44.831,141.933,3.038,44.831,141.932,0.058,15792,3722,雄信内川,雄信内川,
20,45.01,142.078,92.665,45.011,142.078,0.074,15897,3593,上問寒別,問寒別川,
21,44.955,142.055,199.689,44.955,142.055,0.019,15880,3633,中問寒別,問寒別川,
22,44.919,142.017,259.029,44.919,142.018,0.058,15853,3659,下問寒別,問寒別川,
23,44.695,142.038,289.025,44.696,142.038,0.097,15868,3820,安平志内,安平志内川,
24,44.301,142.649,316.201,44.301,142.649,0.042,16308,4104,下川,名寄川,
25,44.319,142.583,623.941,44.319,142.583,0.039,16260,4091,上名寄,名寄川,
26,44.333,142.485,686.448,44.333,142.485,0.052,16190,4081,真勲別（下川町ほか）,名寄川,
27,44.333,142.485,686.448,44.333,142.485,0.052,16190,4081,真勲別（名寄市街）,名寄川,
28,44.317,142.449,154.957,44.317,142.45,0.068,16164,4092,北興橋,風連別川,
29,44.101,142.381,1.626,44.101,142.382,0.069,16115,4248,剣淵橋,剣淵川,
30,44.166,142.377,622.715,44.166,142.377,0.008,16112,4201,士別,剣淵川,
31,44.026,142.405,65.623,44.026,142.405,0.036,16132,4302,剣淵,剣淵川,
32,44.088,142.747,74.039,44.089,142.747,0.098,16378,4257,似峡,似峡川,
33,45.072,141.835,91,45.071,141.835,0.067,15722,3549,下エベコロベツ川,下エベコロベツ川,
34,44.377,142.688,107.735,44.377,142.688,0.018,16336,4049,新栄橋,サンル川,
35,44.328,142.628,198.807,44.328,142.629,0.067,16293,4084,サンル,サンル川,
36,44.363,142.676,41.95,44.363,142.675,0.06,16327,4059,１２線川,サンル十二線川,
37,44.174,142.274,143.613,44.174,142.274,0.042,16038,4195,温根別,犬牛別川,
38,44.141,142.36,277.668,44.141,142.361,0.046,16100,4219,難波田橋,犬牛別川,
39,44.188,142.26,58.126,44.188,142.26,0.041,16028,4185,オンネベツ川,温根別川,
40,44.028,142.36,72.581,44.029,142.361,0.074,16100,4300,辺乙部川,辺乙部川,
41,44.478,142.377,5.102,44.479,142.377,0.059,16112,3976,新美深川,新美深川,
42,44.46,142.37,230.925,44.46,142.369,0.102,16107,3989,仁宇布,ペンケニウプ川,
43,44.342,142.445,7.379,44.342,142.445,0.042,16161,4074,豊栄川,豊栄川,
44,43.849,141.806,50.501,43.85,141.806,0.079,15701,4429,峠下,留萌川,
45,43.856,141.76,168.852,43.856,141.759,0.118,15668,4424,幌糠,留萌川,
46,43.913,141.698,239.936,43.914,141.698,0.09,15623,4383,大和田,留萌川,
47,43.937,141.665,264.491,43.937,141.666,0.116,15599,4366,留萌河口,留萌川,
48,43.927,141.678,4.648,43.927,141.678,0.039,15609,4373,バンゴベ川,バンゴベ川,
49,43.633,143.01,111.383,43.633,143.01,0.053,16568,4585,石狩平,石狩川,
50,43.727,142.955,431.687,43.727,142.955,0.014,16528,4517,層雲峡,石狩川,
51,43.842,142.765,830.566,43.842,142.764,0.062,16391,4434,上川,石狩川,
52,43.89,142.655,1069.86,43.889,142.655,0.065,16312,4400,中愛別,石狩川,
53,43.891,142.522,1299.447,43.891,142.521,0.043,16216,4399,比布,石狩川,
54,43.816,142.419,1608.314,43.816,142.419,0.021,16142,4453,永山,石狩川,
55,43.778,142.358,1892.149,43.778,142.358,0.061,16098,4480,旭橋（永山橋下流）,石狩川,
56,43.778,142.358,1892.149,43.778,142.358,0.061,16098,4480,旭橋（永山橋上流）,石狩川,
57,43.765,142.277,3317.492,43.764,142.276,0.109,16040,4490,伊納,石狩川,
58,43.717,142.133,3534.186,43.718,142.133,0.076,15936,4524,納内,石狩川,
59,43.559,141.885,5688.922,43.559,141.884,0.116,15758,4638,橋本町,石狩川,
60,43.431,141.845,8941.851,43.432,141.839,0.505,15729,4730,奈井江大橋,石狩川,
61,43.33,141.694,9286.726,43.332,141.691,0.328,15620,4803,月形,石狩川,
62,43.124,141.542,12651.872,43.122,141.542,0.257,15511,4951,石狩大橋,石狩川,
63,43.167,141.419,3.604,43.167,141.42,0.11,15422,4920,篠路,石狩川,
64,43.149,142.602,327.305,43.149,142.602,0.035,16274,4933,福寿橋,空知川,
65,43.166,142.585,368.7,43.166,142.586,0.047,16262,4921,幾寅,空知川,
66,43.297,142.395,976.961,43.297,142.395,0.054,16125,4827,布部,空知川,
67,43.366,142.359,1563.093,43.366,142.359,0.004,16099,4777,学田,空知川,
68,43.56,142.044,2548.811,43.56,142.044,0.051,15872,4637,赤平,空知川,
69,43.685,142.178,65.93,43.685,142.178,0.06,15969,4547,内大部川,内大部川,
70,43.747,142.319,30.807,43.746,142.319,0.062,16070,4503,伊野川,伊野川,
71,43.876,142.252,67.821,43.876,142.252,0.035,16022,4410,萬代橋,江丹別川,
72,43.794,142.28,120.282,43.793,142.28,0.084,16042,4469,嵐山,江丹別川,
73,43.824,142.328,173.406,43.824,142.329,0.054,16077,4447,鷹栖橋,オサラッペ川,
74,43.62,142.753,126.063,43.62,142.754,0.045,16383,4594,忠別川上流,忠別川,
75,43.631,142.69,58.289,43.631,142.689,0.056,16337,4586,ピウケナイ,忠別川,
76,43.649,142.585,244.631,43.649,142.586,0.058,16262,4573,江卸,忠別川,
77,43.694,142.501,259.94,43.693,142.501,0.087,16201,4541,暁橋,忠別川,
78,43.748,142.376,336.644,43.748,142.376,0.026,16111,4502,大正橋,忠別川,
79,43.805,142.487,193.417,43.805,142.487,0.022,16191,4461,鹿島橋,牛朱別川,
80,43.788,142.442,200.23,43.788,142.443,0.055,16159,4473,旭永橋,牛朱別川,
81,43.776,142.372,269.342,43.775,142.372,0.086,16108,4482,中央橋,牛朱別川,
82,43.802,142.517,133.439,43.802,142.518,0.052,16213,4463,牛朱別川,牛朱別川,
83,43.87,142.463,56.568,43.87,142.463,0.023,16174,4414,比布川,比布川,
84,43.912,142.573,163.139,43.912,142.574,0.09,16253,4384,本町,愛別川,
85,43.949,142.605,135.458,43.949,142.605,0.035,16276,4357,協和橋,愛別川,
86,43.863,142.844,33.282,43.863,142.843,0.064,16448,4419,ルベシベ,留辺志部川,
87,43.465,142.463,123.667,43.464,142.462,0.116,16174,4706,上富良野,富良野川,
88,43.42,142.43,134.617,43.42,142.43,0.02,16150,4738,中富良野,富良野川,
89,43.356,142.383,343.43,43.356,142.383,0.04,16116,4784,富良野,富良野川,
90,43.349,142.401,117.265,43.349,142.401,0.042,16129,4789,東4線橋,ベベルイ川,
91,43.363,142.415,77.817,43.363,142.415,0.04,16139,4779,ヌッカクシ富良野川,ヌッカクシ富良野川,
92,43.299,142.41,131.323,43.299,142.411,0.057,16136,4825,布部川,布部川,
93,43.216,142.501,88.893,43.216,142.5,0.058,16201,4885,西達布,西達布川,
94,43.86,142.369,52.156,43.86,142.369,0.051,16106,4421,ヨンカシュッペ川,ヨンカシュッペ川,
95,43.665,142.403,196.026,43.665,142.403,0.06,16131,4562,18号,辺別川,
96,43.628,142.574,90.942,43.629,142.574,0.064,16254,4588,辺別川,辺別川,
97,43.594,142.487,67.149,43.594,142.487,0.032,16191,4613,置杵牛川,置杵牛川,
98,43.585,142.456,135.998,43.586,142.456,0.068,16169,4619,西一区,美瑛川,
99,43.644,142.397,411.313,43.643,142.396,0.094,16126,4577,辺別太,美瑛川,
100,43.68,142.377,641.032,43.68,142.378,0.075,16112,4551,西神楽,美瑛川,
101,43.728,142.399,57.596,43.728,142.4,0.076,16128,4516,ポン川,ポン川,
102,43.745,142.49,91.44,43.746,142.489,0.106,16193,4504,倉沼川,倉沼川,
103,43.838,142.522,35.065,43.839,142.521,0.099,16216,4437,当麻川,当麻川,
104,43.792,142.326,22.336,43.792,142.326,0.048,16075,4470,ウッペツ川,ウッペツ川,
105,43.645,143.066,45.113,43.646,143.066,0.096,16608,4576,ルベシナイ,ルベシナイ川,
106,43.774,142.49,86.809,43.774,142.489,0.057,16193,4483,ペーパン川,ペーパン川,
107,43.809,142.466,212.446,43.809,142.466,0.004,16176,4458,北永,永山新川,
108,43.765,142.428,33.016,43.764,142.427,0.135,16149,4490,愛宕新川,その他,
109,42.984,142.398,286.108,42.984,142.399,0.088,16127,5052,鵡川占冠,鵡川,
110,42.759,142.137,944.115,42.759,142.136,0.066,15939,5214,穂別,鵡川,
111,42.658,142.072,1051.805,42.658,142.071,0.06,15892,5287,栄,鵡川,
112,42.574,141.937,1224.87,42.574,141.936,0.073,15795,5347,鵡川,鵡川,
113,42.977,142.399,169.476,42.977,142.399,0.027,16128,5057,双珠別川,双珠別川,
114,45.247,141.845,83.594,45.247,141.841,0.329,15729,3423,小松橋,声問川,
115,45.391,141.773,53.621,45.392,141.769,0.327,15677,3319,声問川,声問川,
116,45.406,141.755,300.135,45.405,141.754,0.155,15664,3308,声問橋,声問川,
117,45.223,142.224,215.39,45.223,142.226,0.133,16002,3440,猿払川,猿払川,
118,44.992,142.295,369.93,44.992,142.294,0.097,16053,3606,頓別川寿,頓別川,
119,44.96,142.272,197.048,44.961,142.272,0.075,16036,3629,頓別川中頓別,頓別川,
120,44.828,142.301,20.394,44.828,142.301,0.057,16057,3724,頓別川小頓別,頓別川,
121,45.069,142.319,505.077,45.068,142.319,0.086,16070,3551,頓別川常盤,頓別川,
122,44.969,142.291,118.66,44.969,142.291,0.028,16050,3623,兵知安川,兵知安川,
123,44.84,142.458,32.579,44.84,142.458,0.054,16170,3716,オムロシュベツ川,オムロシュベツ川,
124,44.837,142.651,287.331,44.837,142.649,0.137,16309,3718,徳志別川,徳志別川,
125,44.658,141.927,283.672,44.657,141.926,0.112,15788,3847,遠別川,遠別川,
126,44.313,141.774,202.066,44.313,141.774,0.032,15678,4095,羽幌川,羽幌川,
127,44.231,141.79,138.786,44.231,141.79,0.044,15689,4154,古丹別川,古丹別川,
128,44.256,141.713,150.645,44.256,141.713,0.032,15634,4136,三毛別川,三毛別川,
129,44.001,141.751,367.718,44,141.75,0.095,15661,4320,沖内,小平蘂川,
130,45.327,142.113,33.904,45.327,142.114,0.064,15922,3365,鬼志別川,鬼志別川,
131,44.927,142.58,36.75,44.928,142.58,0.103,16258,3653,エサシウエンナイ川,エサシウエンナイ川,
132,44.708,142.803,97.087,44.707,142.805,0.14,16419,3811,音標川,音標川,
133,45.402,141.849,93.143,45.403,141.849,0.104,15732,3311,増幌川,増幌川,
134,45.394,141.706,11.481,45.394,141.706,0.034,15629,3317,ウエンナイ川,ウェンナイ川,
135,44.524,141.777,49.804,44.524,141.777,0.035,15680,3943,初山別川,初山別川,
136,44.422,141.791,43.876,44.422,141.791,0.052,15690,4017,七線,茂築別川,
137,44.153,141.665,30.154,44.154,141.664,0.074,15599,4210,温寧川,温寧川,
138,43.872,141.597,71.765,43.872,141.596,0.068,15550,4413,信砂川,信砂川,
139,43.848,141.516,1.877,43.848,141.516,0.011,15492,4430,暑寒別川,暑寒別川,
140,44.84,142.476,214.852,44.84,142.476,0.052,16183,3716,北見幌別川,北見幌別川,
141,44.192,143.076,251.743,44.192,143.076,0.047,16615,4182,滝ノ上,渚滑川,
142,44.249,143.259,996.659,44.25,143.259,0.077,16747,4141,上渚滑,渚滑川,
143,44.349,143.273,1203.763,44.349,143.273,0.035,16757,4069,ウツツ橋,渚滑川,
144,44.38,143.301,1217.101,44.38,143.301,0.029,16777,4047,渚滑橋,渚滑川,
145,44.191,143.083,23.799,44.191,143.083,0.029,16620,4183,シュウトルマップ,シュウトルマップ川,
146,44.006,143.34,808.969,44.006,143.34,0.044,16805,4316,湧別川,湧別川,
147,44.053,143.519,956.381,44.053,143.519,0.055,16934,4282,遠軽,湧別川,
148,44.099,143.544,72.658,44.099,143.544,0.04,16952,4249,開盛,湧別川,
149,44.199,143.591,1461.791,44.2,143.591,0.077,16986,4177,中湧別,湧別川,
150,43.919,143.534,174.088,43.919,143.533,0.086,16945,4379,生田原川中央橋,生田原川,
151,44.053,143.544,276.375,44.053,143.544,0.056,16952,4282,対遠橋,生田原川,
152,43.605,143.338,46.28,43.605,143.338,0.021,16804,4605,峰映,常呂川,
153,43.634,143.497,169.221,43.634,143.496,0.042,16918,4584,常呂川,常呂川,
154,43.683,143.599,422.324,43.682,143.599,0.076,16992,4549,置戸,常呂川,
155,43.755,143.84,664.666,43.754,143.84,0.101,17165,4497,上常呂,常呂川,
156,43.799,143.91,1403.729,43.8,143.911,0.09,17216,4465,北見,常呂川,
157,43.922,143.969,1549.087,43.921,143.968,0.084,17258,4377,忠志,常呂川,
158,44.013,143.987,1846.871,44.013,143.986,0.068,17271,4311,太茶苗,常呂川,
159,44.058,144.035,1895.811,44.057,144.035,0.079,17306,4279,上川沿,常呂川,
160,44.119,144.073,1909.304,44.119,144.072,0.078,17333,4235,河口,常呂川,
161,43.983,143.947,6.711,43.982,143.946,0.083,17242,4333,日吉川,日吉川,
162,43.899,143.897,94.885,43.9,143.896,0.088,17206,4393,仁頃川,仁頃川,
163,43.759,143.512,304.971,43.759,143.512,0.016,16929,4494,温根湯,無加川,
164,43.788,143.622,422.28,43.788,143.621,0.046,17008,4473,留辺蘂,無加川,
165,43.792,143.765,467.221,43.793,143.765,0.077,17111,4470,相ノ内,無加川,
166,43.788,143.89,564.549,43.789,143.89,0.096,17201,4473,北光社,無加川,
167,43.785,143.838,89.991,43.785,143.838,0.049,17164,4475,豊地,訓子府川,
168,43.615,143.342,52.081,43.614,143.343,0.083,16807,4598,鹿ﾉ湯,上ホロカトコロ川,
169,43.808,143.845,11.65,43.808,143.846,0.08,17169,4459,小町川,小町川,
170,43.71,144.009,569.864,43.711,144.009,0.065,17287,4529,津別,網走川,
171,43.648,143.991,156.847,43.648,143.991,0.009,17274,4574,本岐,網走川,
172,43.835,144.098,809.104,43.836,144.098,0.065,17351,4439,美幌,網走川,
173,43.898,144.131,1086.068,43.898,144.132,0.061,17375,4394,本郷,網走川,
174,43.958,144.201,123.586,43.958,144.199,0.143,17425,4351,川尻漁場,網走川,
175,44.005,144.231,1364.869,44.005,144.231,0.025,17447,4317,大曲,網走川,
176,43.913,144.178,17.048,43.913,144.179,0.048,17409,4383,トマップ川,トマップ川,
177,43.82,144.141,178.587,43.821,144.141,0.095,17382,4450,美幌川,美幌川,
178,43.828,144.123,203.762,43.829,144.122,0.095,17369,4444,美幌橋,美幌川,
179,43.698,144.038,148.317,43.698,144.04,0.144,17308,4538,津別川,津別川,
180,43.817,144.108,11.861,43.818,144.108,0.077,17358,4452,魚無川,魚無川,
181,43.488,144.451,433.336,43.488,144.451,0.032,17605,4689,弟子屈,釧路川,
182,43.299,144.601,876.789,43.3,144.601,0.081,17713,4825,標茶,釧路川,
183,43.085,144.427,1645.831,43.086,144.427,0.065,17588,4979,岩保木,釧路川,
184,42.994,144.469,80.221,42.993,144.469,0.086,17618,5045,別保川（釧路川）,釧路川,
185,42.987,144.395,165.767,42.986,144.396,0.113,17565,5050,釧路川旭橋,釧路川,
186,43.056,144.397,2190.826,43.056,144.397,0.048,17566,5000,広里,新釧路川,
187,43.008,144.366,2320.189,43.007,144.367,0.11,17544,5035,鳥取,新釧路川,
188,43.013,144.362,126.117,43.014,144.362,0.091,17541,5031,仁々志別川,仁々志別川,
189,43.237,144.327,156.248,43.237,144.327,0.023,17516,4870,雪裡川,雪裡川,
190,43.217,144.344,169.559,43.217,144.343,0.073,17528,4884,雪裡,雪裡川,
191,43.22,144.431,97.813,43.22,144.432,0.063,17591,4882,下久著呂,久著呂川,
192,43.29,144.537,139.06,43.289,144.537,0.066,17667,4832,下オソベツ,オソベツ川,
193,43.481,144.451,138.548,43.481,144.451,0.037,17605,4694,鐺別川,鐺別川,
194,43.158,144.324,123.365,43.157,144.325,0.09,17514,4927,幌呂,幌呂川,
195,42.994,144.469,80.221,42.993,144.469,0.086,17618,5045,別保川,別保川,
196,43.424,142.866,6.323,43.418,142.866,0.701,16464,4735,シイ十勝,十勝川,
197,43.323,142.942,538.196,43.323,142.943,0.052,16519,4808,ニペソツ,十勝川,
198,43.067,142.928,807.235,43.068,142.926,0.213,16509,4992,共栄橋,十勝川,
199,43.013,142.935,856.128,43.013,142.938,0.212,16514,5031,熊牛,十勝川,
200,42.931,143.047,1.031,42.931,143.047,0.047,16594,5090,芽室太,十勝川,
201,42.937,143.203,2674.479,42.934,143.203,0.314,16707,5086,帯広,十勝川,
202,42.927,143.292,3.411,42.927,143.291,0.111,16771,5093,十勝中央大橋,十勝川,
203,42.923,143.385,5084.656,42.92,143.384,0.344,16838,5096,千代田,十勝川,
204,42.808,143.512,8163.789,42.808,143.512,0.043,16929,5179,茂岩,十勝川,
205,42.692,143.648,8361.323,42.69,143.648,0.262,17027,5262,大津,十勝川,
206,42.774,143.597,101.267,42.774,143.597,0.051,16990,5203,大平橋,下頃辺川,
207,42.734,143.673,604.564,42.734,143.674,0.089,17045,5232,十勝太,浦幌十勝川,
208,42.795,143.649,412.652,42.796,143.65,0.111,17028,5188,万年橋,浦幌川,
209,42.928,143.653,250.629,42.929,143.654,0.073,17031,5092,浦幌川留真,浦幌川,
210,43.017,143.631,169.586,43.017,143.631,0.045,17015,5028,浦幌川活平,浦幌川,
211,42.795,143.653,412.737,42.796,143.654,0.105,17031,5188,浦幌川万年,浦幌川,
212,42.799,143.472,132.445,42.799,143.472,0.052,16900,5185,農野牛,牛首別川,
213,42.755,143.426,39.727,42.755,143.426,0.03,16867,5217,牛首別川,牛首別川,
214,43.094,143.512,2302.296,43.094,143.516,0.342,16929,4973,東橋,利別川,
215,42.931,143.442,2697.207,42.931,143.443,0.058,16879,5090,利別,利別川,
216,43.244,143.556,928.985,43.244,143.557,0.068,16961,4865,利別川足寄,利別川,
217,43.465,143.738,205.393,43.464,143.738,0.066,17092,4706,利別川陸別,利別川,
218,43.391,143.684,619.183,43.39,143.684,0.108,17053,4759,利別川大誉地,利別川,
219,42.91,143.356,443.74,42.91,143.356,0.05,16817,5105,止若,猿別川,
220,42.785,143.322,261.924,42.786,143.322,0.076,16792,5195,猿別川,猿別川,
221,42.913,143.283,128.395,42.913,143.282,0.056,16764,5103,千住12号橋,途別川,
222,42.878,143.235,110.081,42.879,143.235,0.068,16730,5128,途別川,途別川,
223,42.947,143.27,1.623,42.947,143.27,0.054,16755,5079,旭橋,士幌川,
224,43.081,143.29,55.235,43.081,143.29,0.043,16769,4982,士幌川,士幌川,
225,42.61,142.87,83.164,42.611,142.87,0.066,16467,5321,竜潭上流,札内川,
226,42.58,142.931,3.794,42.58,142.935,0.309,16511,5343,札内ダム直下,札内川,
227,42.605,142.987,151.005,42.603,142.987,0.207,16551,5325,南札内,札内川,
228,42.642,143.09,182.958,42.642,143.092,0.203,16625,5298,上札内,札内川,
229,42.798,143.155,536.718,42.798,143.157,0.175,16672,5186,第二大川橋,札内川,
230,42.84,143.19,18.62,42.84,143.188,0.137,16697,5156,南帯橋,札内川,
231,42.926,143.23,692.777,42.926,143.229,0.078,16726,5094,札内,札内川,
232,42.933,143.209,36.899,42.933,143.209,0.04,16711,5089,東3条,帯広川,
233,42.89,143.12,111.918,42.89,143.12,0.048,16647,5120,帯広川北伏古,帯広川,
234,42.922,143.135,149.475,42.922,143.135,0.063,16658,5097,帯広川西帯広,帯広川,
235,42.805,143.066,77.808,42.804,143.066,0.096,16608,5181,帯広川上帯広,帯広川,
236,42.93,143.202,34.259,42.929,143.202,0.096,16706,5091,帯広川西1条,帯広川,
237,43.185,143.224,1.611,43.186,143.225,0.086,16722,4907,士幌,音更川,
238,43.008,143.201,704.999,43.007,143.2,0.091,16705,5035,音更,音更川,
239,43.238,143.272,494.473,43.238,143.273,0.12,16756,4869,音更川,音更川,
240,42.951,143.148,653.873,42.951,143.147,0.083,16667,5076,国見橋,然別川,
241,43.094,142.985,3.458,43.094,142.984,0.119,16550,4973,然別川,然別川,
242,42.923,143.067,191.177,42.923,143.066,0.113,16609,5096,美生橋,美生川,
243,42.913,143.062,188.481,42.912,143.061,0.147,16605,5103,美生川,美生川,
244,42.91,143.04,21.069,42.91,143.039,0.066,16589,5105,ピウカ川,ピウカ川,
245,42.915,143.027,202.795,42.914,143.028,0.098,16580,5102,芽室川,芽室川,
246,43.087,142.833,153.836,43.086,142.833,0.095,16440,4978,新得,佐幌川,
247,43.412,142.878,211.122,43.412,142.878,0.043,16473,4744,トムラウシ,トムラウシ川,
248,42.92,143.476,112.919,42.92,143.476,0.029,16903,5098,東台1号橋,十弗川,
249,42.931,143.497,108.917,42.931,143.497,0.048,16918,5090,十弗川,十弗川,
250,43.209,143.372,53.697,43.209,143.371,0.042,16828,4890,居辺川,居辺川,
251,43.122,143.616,61.456,43.122,143.616,0.053,17004,4953,本別川,本別川,
252,43.133,143.585,608.569,43.132,143.585,0.079,16982,4945,美里別川,美里別川,
253,43.242,143.563,538.05,43.243,143.563,0.072,16966,4866,足寄川,足寄川,
254,43.306,143.709,121.542,43.306,143.709,0.028,17071,4820,螺湾川,螺湾川,
255,43.467,143.751,126.952,43.467,143.751,0.047,17101,4704,陸別川,陸別川,
256,42.895,143.197,21.274,42.895,143.197,0.042,16702,5116,売買川,売買川,
257,42.699,143.058,152.203,42.699,143.058,0.045,16602,5257,戸蔦橋,戸蔦別川,
258,42.733,143.108,292.112,42.732,143.109,0.132,16638,5233,中島橋,戸蔦別川,
259,42.928,143.141,149.926,42.928,143.141,0.052,16662,5092,新帯広川,新帯広川,
260,42.952,143.198,8.34,42.952,143.198,0.011,16703,5075,鈴蘭川,鈴蘭川,
261,43.008,142.872,32.292,43.007,142.872,0.081,16468,5035,ペケレベツ川,ペケレベツ川,
262,43.083,142.82,28.051,43.082,142.82,0.072,16431,4981,パンケ新得川,パンケシントク川,
263,42.922,143.188,17.142,42.921,143.188,0.061,16696,5097,ウツベツ川,ウツベツ川,
264,42.924,143.158,9.798,42.924,143.158,0.045,16674,5095,柏林台川,柏林台川,
265,43.008,144.701,108.903,43.007,144.701,0.075,17785,5035,尾幌川,尾幌川,
266,44.651,142.859,269.346,44.65,142.859,0.077,16459,3852,幌内,幌内川,
267,44.473,143.116,294.424,44.473,143.116,0.01,16644,3980,興部,興部川,
268,44.438,143.122,1.07,44.438,143.121,0.047,16648,4005,第二,藻興部川,
269,44.287,143.353,206.527,44.287,143.354,0.048,16815,4114,中藻鼈,藻鼈川,
270,44.006,143.76,247.532,44.006,143.76,0.044,17108,4316,中佐呂間,佐呂間別川,
271,44.019,143.785,253.146,44.019,143.785,0.043,17126,4307,永代,佐呂間別川,
272,44.147,143.681,121.248,44.147,143.682,0.081,17051,4215,芭露,芭露川,
273,43.784,144.535,236.922,43.784,144.535,0.034,17666,4476,札弦,斜里川,
274,43.838,144.601,341.574,43.838,144.601,0.033,17713,4437,斜里川中央橋,斜里川,
275,43.901,144.641,531.031,43.901,144.641,0.034,17742,4392,斜里,斜里川,
276,43.885,144.66,172.425,43.885,144.661,0.066,17756,4403,猿間,猿間川,
277,42.391,143.302,158.258,42.392,143.302,0.114,16778,5479,豊似川,豊似川,
278,42.494,143.278,463.072,42.495,143.278,0.144,16761,5405,歴舟川本町,歴舟川,
279,42.524,143.195,413.615,42.524,143.197,0.157,16701,5383,歴舟川尾田,歴舟川,
280,42.905,143.931,282.956,42.905,143.931,0.024,17231,5109,音別川,音別川,
281,42.972,144.059,349.856,42.971,144.061,0.172,17323,5061,茶路川,茶路川,
282,42.99,144.127,274.617,42.99,144.126,0.1,17372,5048,庶路川,庶路川,
283,43.015,144.116,252.086,43.015,144.116,0.045,17364,5030,泊別中継,庶路川,
284,43.074,144.233,657.654,43.074,144.233,0.045,17448,4987,阿寒川山花,阿寒川,
285,43.012,144.27,685.671,43.011,144.27,0.09,17475,5032,阿寒川大楽毛,阿寒川,
286,43.119,144.119,158.958,43.119,144.119,0.034,17366,4955,舌辛川,舌辛川,
287,43.373,144.981,223.908,43.373,144.982,0.062,17987,4772,中西別,西別川,
288,43.391,145.127,375.618,43.39,145.127,0.108,18092,4759,西別川,西別川,
289,43.553,144.976,409.773,43.553,144.977,0.118,17983,4642,標津川東5条,標津川,
290,43.585,145.022,421.023,43.585,145.023,0.127,18016,4619,標津川俵橋,標津川,
291,43.638,145.081,677.603,43.64,145.079,0.271,18059,4581,標津川合流点,標津川,
292,43.673,145.122,1.397,43.674,145.121,0.128,18088,4556,標津川河口,標津川,
293,42.955,144.033,1.568,42.955,144.033,0.034,17304,5073,和天別川,和天別川,
294,43.013,144.308,13.937,43.013,144.307,0.056,17502,5031,星ガ浦川,星ガ浦川,
295,44.549,142.935,93.17,44.549,142.935,0.048,16514,3925,中雄武,雄武川,
296,44.005,144.103,16.46,44.005,144.104,0.046,17355,4317,卯原内川,卯原内川,
297,43.923,144.297,162.923,43.923,144.296,0.042,17494,4376,山里,藻琴川,
298,44.022,145.188,30.482,44.022,145.188,0.055,18136,4305,羅臼川,羅臼川,
299,42.581,143.476,61.305,42.581,143.477,0.111,16903,5342,生花苗川,生花苗川,
300,42.506,143.417,130.505,42.506,143.418,0.06,16861,5396,当縁川,当縁川,
301,42.448,143.294,50.414,42.448,143.294,0.022,16772,5438,紋別川,紋別川,
302,42.313,143.32,117.984,42.314,143.32,0.09,16791,5535,楽古川,楽古川,
303,42.285,143.299,30.545,42.285,143.3,0.074,16776,5555,西広尾川,西広尾川,
304,44.01,144.265,3.111,44.011,144.264,0.08,17471,4313,車止内川,車止内川,
305,43.142,141.644,5.345,43.143,141.644,0.074,15584,4938,旧幌向川,その他,
306,43.485,141.897,43.509,43.485,141.899,0.206,15766,4691,遊水地第２水位,石狩川管内,
307,43.495,141.894,8742.533,43.495,141.894,0.025,15764,4684,石狩川上流水位,石狩川管内,
308,43.483,141.89,58.494,43.481,141.888,0.222,15761,4693,遊水地第１水位,石狩川管内,
309,43.488,141.883,58.915,43.489,141.882,0.104,15756,4689,石狩川下流水位,石狩川管内,
310,43.89,142.655,1069.86,43.889,142.655,0.065,16312,4400,中愛別,石狩川,
311,43.778,142.358,1892.149,43.778,142.358,0.061,16098,4480,旭橋（永山橋下流）,石狩川,
312,43.765,142.277,3317.492,43.764,142.276,0.109,16040,4490,伊納,石狩川,
313,43.717,142.133,3534.186,43.718,142.133,0.076,15936,4524,納内,石狩川,
314,43.715,142.047,3604.623,43.716,142.046,0.162,15874,4526,深川橋,石狩川,
315,43.678,141.981,3661.941,43.677,141.982,0.175,15827,4552,妹背牛橋,石狩川,
316,43.635,141.913,5427.69,43.636,141.918,0.393,15778,4583,伏古,石狩川,
317,43.559,141.885,5688.922,43.559,141.884,0.116,15758,4638,橋本町,石狩川,
318,43.501,141.903,2.105,43.502,141.903,0.149,15771,4680,砂川橋,石狩川,
319,43.431,141.845,8941.851,43.432,141.839,0.505,15729,4730,奈井江大橋,石狩川,
320,43.33,141.694,9286.726,43.332,141.691,0.328,15620,4803,月形,石狩川,
321,43.222,141.667,320.678,43.221,141.666,0.126,15601,4881,岩見沢大橋,石狩川,
322,43.124,141.542,12651.872,43.122,141.542,0.257,15511,4951,石狩大橋,石狩川,
323,43.167,141.419,3.604,43.167,141.42,0.11,15422,4920,篠路,石狩川,
324,43.237,141.348,14283.287,43.237,141.346,0.158,15371,4870,石狩,石狩川,
325,43.247,141.358,14289.806,43.248,141.357,0.172,15378,4863,石狩河口,石狩川,
326,43.167,141.348,125.952,43.167,141.348,0.041,15371,4920,茨戸,茨戸川,
327,43.147,141.313,9.69,43.146,141.313,0.06,15346,4935,発寒川,発寒川,
328,43.159,141.348,27.245,43.159,141.348,0.008,15371,4926,発寒,発寒川,
329,43.147,141.315,9.726,43.147,141.315,0.062,15347,4935,発寒川遊水地,発寒川,
330,43.148,141.317,19.08,43.148,141.318,0.052,15349,4934,発寒上流,発寒川,
331,43.22,141.526,274.488,43.22,141.526,0.029,15499,4882,樺戸,当別川,
332,43.183,141.492,307.924,43.183,141.491,0.117,15475,4909,当別川下,当別川,
333,42.873,141.153,64.689,42.873,141.153,0.04,15231,5132,本流上流,豊平川,
334,42.965,141.159,215.743,42.964,141.159,0.065,15235,5066,定山渓市街,豊平川,
335,42.966,141.284,513.679,42.966,141.284,0.005,15325,5065,白川,豊平川,
336,42.966,141.316,536.554,42.966,141.316,0.004,15348,5065,豊平川,豊平川,
337,42.967,141.322,537.076,42.966,141.322,0.156,15352,5064,石山,豊平川,
338,43.03,141.355,627.993,43.03,141.354,0.071,15376,5019,藻岩,豊平川,
339,43.072,141.401,631.972,43.071,141.401,0.063,15409,4989,雁来,豊平川,
340,43.169,141.592,43.538,43.169,141.592,0.041,15547,4919,南8号,篠津川,
341,42.776,141.399,1.235,42.775,141.4,0.096,15408,5202,支笏湖,千歳川,
342,42.808,141.569,2.045,42.808,141.569,0.045,15530,5179,ふ化場,千歳川,
343,42.819,141.633,295.792,42.818,141.632,0.099,15576,5171,春日,千歳川,
344,42.847,141.67,367.823,42.846,141.67,0.059,15603,5151,西越,千歳川,
345,42.944,141.651,661.019,42.943,141.651,0.087,15589,5081,舞鶴,千歳川,
346,42.983,141.623,943.021,42.983,141.622,0.086,15569,5053,南6号樋門,千歳川,
347,43.02,141.577,1130.622,43.02,141.577,0.016,15536,5026,裏の沢,千歳川,
348,43.105,141.569,1240.773,43.105,141.569,0.025,15530,4965,東光,千歳川,
349,42.984,142.012,550.278,42.984,142.012,0.016,15849,5052,清水沢,夕張川,
350,42.933,142.035,667.426,42.932,142.035,0.078,15866,5089,紅葉山,夕張川,
351,42.947,141.874,791.166,42.946,141.875,0.082,15750,5079,円山,夕張川,
352,43.027,141.777,1006.872,43.027,141.777,0.012,15680,5021,由仁,夕張川,
353,43.09,141.688,1108.222,43.089,141.688,0.067,15616,4976,清幌橋,夕張川,
354,43.215,142.056,57.237,43.215,142.056,0.051,15881,4886,奥桂,幾春別川,
355,43.256,141.917,226.596,43.256,141.917,0.039,15781,4856,藤松,幾春別川,
356,43.24,141.866,267.129,43.24,141.866,0.046,15744,4868,市来知,幾春別川,
357,43.206,141.726,318.622,43.207,141.726,0.087,15643,4892,西川向,幾春別川,
358,43.324,141.762,4.205,43.325,141.762,0.078,15669,4807,旧美唄川,旧美唄川,
359,43.288,141.715,115.914,43.288,141.714,0.051,15635,4833,大豊橋,旧美唄川,
360,43.251,141.676,161.584,43.251,141.676,0.041,15607,4860,第1旧美唄橋,旧美唄川,
361,43.342,141.82,88.305,43.342,141.82,0.042,15711,4794,美唄,美唄川,
362,43.319,141.872,85.59,43.319,141.872,0.047,15748,4811,新橋,美唄川,
363,43.426,141.863,41.516,43.425,141.863,0.079,15742,4734,中奈井江,奈井江川,
364,43.472,141.905,12.901,43.471,141.905,0.06,15772,4701,奈江豊平川,奈江豊平川,
365,43.494,141.903,40.607,43.493,141.903,0.092,15771,4685,パンケ水門上流水位,パンケ歌志内川,
366,43.488,141.913,38.933,43.488,141.913,0.026,15778,4689,下吉野橋,パンケ歌志内川,
367,43.48,141.976,33.859,43.48,141.976,0.029,15823,4695,パンケ呑口上流,パンケ歌志内川,
368,43.494,141.901,2.222,43.494,141.901,0.037,15769,4685,ペンケ樋門上流水位,ペンケ歌志内川,
369,43.522,142.034,17.543,43.521,142.034,0.059,15865,4665,歌志内市役所,ペンケ歌志内川,
370,43.503,141.926,47.2,43.504,141.926,0.064,15787,4678,ペンケ焼山第３,ペンケ歌志内川,
371,43.366,142.359,1563.093,43.366,142.359,0.004,16099,4777,学田,空知川,
372,43.56,142.044,2548.811,43.56,142.044,0.051,15872,4637,赤平,空知川,
373,43.547,141.91,2634.728,43.548,141.911,0.17,15776,4647,空知大橋,空知川,
374,43.574,141.828,237.064,43.576,141.829,0.193,15717,4627,上徳富,徳富川,
375,43.609,141.934,8.976,43.609,141.935,0.078,15793,4602,熊穴川,熊穴川,
376,43.648,141.86,1.044,43.648,141.86,0.033,15740,4574,尾白利加川,尾白利加川,
377,44.217,142.151,430.54,44.217,142.15,0.069,15949,4164,雨竜川,雨竜川,
378,44.013,142.151,640.018,44.013,142.151,0.032,15949,4311,幌加内,雨竜川,
379,43.806,142.013,985.3,43.807,142.013,0.084,15850,4460,多度志,雨竜川,
380,43.788,141.928,1150.613,43.789,141.928,0.098,15789,4473,達布橋,雨竜川,
381,43.73,141.912,1409.682,43.73,141.914,0.179,15777,4515,北竜橋,雨竜川,
382,43.684,141.915,1661.681,43.684,141.913,0.128,15779,4548,雨竜橋,雨竜川,
383,43.153,141.37,60.602,43.153,141.371,0.087,15387,4930,伏籠下流,伏籠川,
384,43.158,141.362,60.858,43.158,141.361,0.077,15381,4927,福移橋,伏籠川,
385,43.119,141.427,19.79,43.118,141.427,0.084,15428,4955,モエレ,篠路新川,
386,43.156,141.352,17.269,43.156,141.352,0.029,15374,4928,創成,創成川,
387,43.124,141.344,8.21,43.125,141.344,0.079,15368,4951,創成上流,創成川,
388,43.087,141.559,22.98,43.087,141.559,0.022,15523,4978,早苗別川,早苗別川,
389,43.012,141.703,7.53,43.012,141.701,0.203,15627,5032,馬追運河,馬追運河,
390,42.983,141.556,23.432,42.983,141.556,0.045,15521,5053,輪厚,輪厚川,
391,42.988,141.565,24.749,42.988,141.564,0.053,15527,5049,輪厚,輪厚川,
392,42.937,141.562,1.794,42.936,141.562,0.091,15525,5086,島松,島松川,
393,42.941,141.569,52.195,42.941,141.569,0.021,15530,5083,下島松,島松川,
394,42.891,141.551,20.956,42.891,141.55,0.056,15517,5119,第一遊水地外水位,柏木川,
395,42.905,141.567,22.426,42.905,141.567,0.034,15529,5109,第二遊水地外水位,柏木川,
396,42.916,141.578,29.639,42.916,141.579,0.043,15537,5101,柏木,柏木川,
397,43.048,141.452,97.28,43.047,141.452,0.103,15446,5006,川下橋,厚別川,
398,43.112,141.478,150.647,43.112,141.478,0.044,15465,4960,厚別,厚別川,
399,43.038,141.483,22.688,43.038,141.482,0.057,15468,5013,南郷もみじ橋,野津幌川,
400,43.062,141.467,27.324,43.061,141.467,0.094,15457,4996,厚別西川,野津幌川,
401,42.858,141.403,40.291,42.857,141.403,0.081,15411,5143,光竜,漁川,
402,42.878,141.572,127.881,42.879,141.57,0.137,15532,5128,日の出橋,漁川,
403,43.041,141.431,22.313,43.041,141.431,0.02,15431,5011,月寒川,月寒川,
404,43.058,141.431,23.713,43.057,141.432,0.093,15431,4999,月寒,月寒川,
405,42.91,141.723,62.18,42.91,141.723,0.047,15641,5105,嶮淵,嶮淵川,
406,42.934,141.341,30.059,42.934,141.341,0.004,15366,5088,真駒内常磐,真駒内川,
407,42.987,141.349,35.348,42.987,141.349,0.033,15372,5050,真駒内橋,真駒内川,
408,42.86,141.623,12.852,42.861,141.623,0.065,15569,5141,長都,長都川,
409,42.816,141.647,63.207,42.816,141.646,0.043,15586,5173,真々地,ママチ川,
410,43.033,141.128,68.047,43.033,141.129,0.058,15213,5017,小樽内,小樽内川,
411,43.013,141.155,14.592,43.013,141.154,0.074,15232,5031,滝の沢,滝の沢川,
412,42.974,141.173,200.52,42.974,141.173,0.035,15245,5059,一の沢,白井川,
413,43.145,141.722,177.566,43.145,141.721,0.046,15640,4936,岩栗橋,幌向川,
414,43.134,141.647,301.199,43.134,141.646,0.043,15586,4944,豊幌,幌向川,
415,43.184,141.745,32.14,43.184,141.744,0.093,15657,4908,大和橋,利根別川,
416,43.194,141.774,5.146,43.194,141.774,0.037,15678,4901,東利根別川,東利根別川,
417,43.009,141.309,3.923,43.009,141.309,0.003,15343,5034,下北の沢,北の沢川,
418,43.063,141.841,17.717,43.063,141.842,0.086,15726,4995,元田,ポンウエンベツ川,
419,43.001,141.312,5.72,43.001,141.311,0.074,15345,5040,中の沢,中の沢川,
420,43.026,141.881,56.198,43.025,141.881,0.08,15755,5022,阿野呂川,阿野呂川,
421,42.981,141.333,6.241,42.982,141.333,0.088,15360,5054,下南の沢,南の沢川,
422,43.366,141.798,76.001,43.366,141.798,0.008,15695,4777,産化美唄,産化美唄川,
423,43.548,142.144,129.405,43.548,142.144,0.022,15944,4646,パンケ幌内川,パンケ幌内川,
424,42.938,141.224,7.029,42.938,141.224,0.034,15282,5085,盤の沢川,盤の沢川,
425,43.709,141.926,76.876,43.709,141.926,0.024,15787,4530,大鳳橋,大鳳川,
426,43.723,142.019,2.471,43.723,142.019,0.021,15854,4520,深川,堺川,
427,43.709,141.822,124.607,43.709,141.822,0.038,15712,4530,恵岱別,恵岱別川,
428,43.772,141.888,56.741,43.772,141.889,0.084,15760,4485,碧水,美葉牛川,
429,43.787,141.91,165.442,43.787,141.912,0.13,15776,4474,沼田北竜,幌新太刀別川,
430,43.808,141.952,59.582,43.808,141.952,0.04,15806,4459,沼田奔川,沼田奔川,
431,43.806,142.034,62.792,43.807,142.034,0.083,15865,4460,多度志川,多度志川,
432,42.999,141.365,11.258,42.999,141.365,0.048,15383,5041,精進川,精進川,
433,42.985,141.306,1.747,42.986,141.306,0.068,15341,5051,南の沢,南の沢川,
434,42.958,141.263,23.204,42.957,141.263,0.073,15310,5071,簾舞,簾舞川,
435,42.959,141.692,1.048,42.962,141.684,0.758,15619,5070,南六号川,南六号川,
436,42.944,141.687,22.968,42.944,141.684,0.229,15615,5081,南九号川,南９号川,
437,42.89,141.569,7.5,42.889,141.569,0.068,15530,5120,茂漁,茂漁川,
438,42.865,141.41,39.413,42.864,141.411,0.08,15416,5138,白扇,ラルマナイ川,
439,42.866,141.16,40.492,42.866,141.16,0.035,15236,5137,漁入沢,漁入沢川,
440,42.942,141.309,3.404,42.943,141.309,0.071,15343,5082,オカバルシ,オカバルシ川,
441,42.96,141.312,7.33,42.961,141.312,0.066,15345,5069,下オカバルシ,オカバルシ川,
442,43.015,141.783,4.366,43.014,141.783,0.072,15684,5030,ヤリキレナイ川,ヤリキレナイ川,
443,43.031,141.385,6.978,43.032,141.386,0.096,15398,5018,望月寒川,望月寒川,
444,43.076,141.427,18.316,43.075,141.426,0.117,15428,4986,望月寒,望月寒川,
445,43.753,141.959,7.641,43.754,141.96,0.098,15811,4498,秩父別境川,境川,
446,42.79,140.934,241.009,42.789,140.934,0.065,15073,5192,喜茂別下流,尻別川,
447,42.885,140.752,656.135,42.885,140.753,0.088,14942,5123,倶知安,尻別川,
448,42.801,140.599,1280.543,42.801,140.599,0.042,14832,5184,昆布,尻別川,
449,42.816,140.528,1325.002,42.815,140.529,0.117,14781,5173,蘭越,尻別川,
450,42.81,140.46,1385.587,42.811,140.461,0.081,14732,5177,名駒,尻別川,
451,42.877,140.366,1634.08,42.877,140.365,0.079,14664,5129,河口,尻別川,
452,42.81,140.684,870.03,42.81,140.684,0.046,14893,5177,尻別川ニセコ,尻別川,
453,42.86,140.877,4.365,42.86,140.877,0.047,15032,5141,尻別川三崎,尻別川,
454,42.767,140.448,71.631,42.767,140.449,0.097,14723,5208,目名川,目名川,
455,42.905,140.744,109.353,42.905,140.744,0.027,14936,5109,倶登山川,倶登山川,
456,42.795,140.966,71.375,42.795,140.966,0.016,15096,5188,喜茂別川,喜茂別川,
457,42.794,140.601,133.573,42.794,140.601,0.037,14833,5189,昆布川,昆布川,
458,43.166,140.769,419.313,43.165,140.769,0.11,14954,4921,余市川鮎見橋,余市川,
459,43.178,140.79,14.305,43.178,140.79,0.062,14969,4912,余市中の川樋門内水,余市川,
460,43.183,140.79,452.358,43.183,140.79,0.052,14969,4909,黒川樋門外水,余市川,
461,43.123,140.735,393.236,43.123,140.734,0.116,14930,4952,余市川然別,余市川,
462,43.049,140.83,2.568,43.049,140.83,0.036,14998,5005,余市川都,余市川,
463,43.183,140.79,452.358,43.183,140.79,0.052,14969,4909,黒川樋門内水,余市川,
464,43.178,140.79,14.305,43.178,140.79,0.062,14969,4912,余市中の川樋門外水,余市川,
465,42.753,140.291,352.904,42.753,140.291,0.053,14610,5218,朱太川実橋,朱太川,
466,42.674,140.308,127.302,42.674,140.307,0.063,14622,5275,朱太川黒松内,朱太川,
467,43.113,141.291,108.202,43.112,141.291,0.133,15330,4959,天狗橋,新川,
468,43.128,141.266,26.16,43.129,141.267,0.102,15312,4948,新発寒桜川,新川,
469,43.092,141.32,31.614,43.092,141.32,0.042,15351,4974,琴似川,琴似川,
470,43.081,141.272,2.354,43.084,141.271,0.309,15316,4982,中の川一条橋,中の川,
471,43.117,141.266,25.322,43.118,141.266,0.071,15312,4956,共栄橋,中の川,
472,43.124,141.266,26.112,43.124,141.265,0.086,15312,4951,わらび川,中の川,
473,43.11,141.259,2.595,43.11,141.26,0.09,15307,4961,西宮の沢川,中の川,
474,43.113,141.256,5.05,43.112,141.256,0.135,15305,4959,富丘川,中の川,
475,43.074,141.288,63.692,43.074,141.288,0.038,15328,4987,西野,琴似発寒川,
476,43.116,141.266,25.31,43.115,141.266,0.108,15312,4957,旧中の川,旧中の川,
477,43.131,141.267,109.386,43.131,141.268,0.059,15313,4946,発寒古川,発寒古川,
478,43.131,141.266,143.031,43.131,141.265,0.084,15312,4946,旧軽川,旧軽川,
479,43.584,141.417,117.32,43.584,141.418,0.052,15421,4620,浜益川,浜益川,
480,43.397,141.445,135.611,43.397,141.445,0.054,15441,4755,厚田川,厚田川,
481,43.135,141.194,15.639,43.135,141.193,0.078,15260,4943,星置川,星置川,
482,43.138,141.041,38.927,43.138,141.041,0.022,15150,4941,豊倉,朝里川,
483,43.159,141.044,50.164,43.159,141.044,0.021,15152,4926,文治沢,朝里川,
484,43.181,141.008,29.374,43.181,141.007,0.059,15126,4910,勝納川,勝納川,
485,43.203,140.923,14.089,43.204,140.923,0.06,15065,4894,塩谷川,塩谷川,
486,43.197,140.86,10.335,43.197,140.86,0.063,15020,4899,蘭島川,蘭島川,
487,43.181,140.844,18.465,43.181,140.844,0.035,15008,4910,畚部川,畚部川,
488,43.192,140.765,34.519,43.193,140.764,0.085,14951,4902,ヌッチ川,ヌッチ川,
489,43.258,140.645,148.126,43.258,140.646,0.079,14865,4855,古平川,古平川,
490,43.29,140.594,56.306,43.29,140.593,0.077,14828,4832,美国川,美国川,
491,42.969,140.677,57.467,42.969,140.677,0.029,14888,5063,堀株川小沢,堀株川,
492,42.984,140.613,136.178,42.984,140.614,0.067,14842,5052,堀株川共和,堀株川,
493,42.681,140.067,99.186,42.681,140.067,0.04,14449,5270,泊川,泊川,
494,42.981,140.592,17.821,42.981,140.593,0.059,14827,5054,中の川共和,中の川,
495,42.508,140.191,48.835,42.507,140.191,0.071,14538,5395,上利別,後志利別川,
496,42.428,140.153,142.365,42.428,140.154,0.068,14511,5452,花石,後志利別川,
497,42.41,140.105,206.705,42.411,140.105,0.066,14476,5465,住吉,後志利別川,
498,42.422,140.009,355.993,42.421,140.009,0.058,14407,5457,今金,後志利別川,
499,42.416,139.922,613.921,42.417,139.921,0.122,14344,5461,大富,後志利別川,
500,42.426,139.848,1.005,42.425,139.848,0.077,14291,5454,河口,後志利別川,
501,42.417,139.874,63.905,42.418,139.874,0.075,14310,5460,檜山真駒内川,真駒内川,
502,42.433,140.01,5.746,42.432,140.011,0.086,14408,5449,チブタウシナイ川,チブタウシナイ川,
503,42.494,140.16,16.014,42.493,140.16,0.09,14516,5405,忠志別,チュウシベツ川,
504,42.499,140.231,17.679,42.499,140.231,0.039,14567,5401,美利河別,ピリカベツ川,
505,42.39,140.026,81.98,42.389,140.025,0.086,14419,5480,オチャラッペ川,オチャラッペ川,
506,42.984,142.398,286.108,42.984,142.399,0.088,16127,5052,鵡川占冠,鵡川,
507,42.89,142.255,605.915,42.89,142.255,0.047,16024,5120,福山,鵡川,
508,42.783,142.223,1.105,42.782,142.223,0.071,16001,5197,鵡川,鵡川,
509,42.759,142.137,944.115,42.759,142.136,0.066,15939,5214,穂別,鵡川,
510,42.658,142.072,1051.805,42.658,142.071,0.06,15892,5287,栄,鵡川,
511,42.574,141.937,1224.87,42.574,141.936,0.073,15795,5347,鵡川,鵡川,
512,42.794,142.149,175.028,42.794,142.15,0.062,15948,5189,穂別川,穂別川,
513,42.71,142.245,767.352,42.711,142.245,0.066,16017,5249,幌毛志橋,沙流川,
514,42.584,142.141,1256.341,42.583,142.141,0.114,15942,5340,平取,沙流川,
515,42.515,142.031,1325.513,42.517,142.031,0.269,15863,5390,富川,沙流川,
516,42.897,142.556,262.164,42.896,142.556,0.062,16241,5115,千呂露小橋,沙流川,
517,42.67,142.265,288.988,42.671,142.264,0.106,16031,5278,額平川,額平川,
518,42.667,142.245,364.259,42.667,142.245,0.042,16017,5280,貫気別,額平川,
519,42.66,142.273,59.737,42.66,142.273,0.047,16037,5285,貫気別川,貫気別川,
520,42.642,142.328,31.999,42.642,142.328,0.056,16077,5298,貫気別川旭,貫気別川,
521,41.884,140.327,157.146,41.884,140.327,0.008,14636,5844,厚沢部川上流,厚沢部川,
522,41.926,140.212,439.651,41.926,140.213,0.104,14553,5814,厚沢部川,厚沢部川,
523,41.952,140.256,85.687,41.952,140.258,0.144,14585,5795,安野呂川,安野呂川,
524,41.931,140.323,61.048,41.931,140.323,0.029,14633,5810,鶉川,鶉川,
525,42.592,140.702,233.346,42.593,140.702,0.072,14906,5334,豊浦,貫気別川,
526,42.634,141.034,107.271,42.634,141.034,0.004,15145,5304,優徳,長流川,
527,42.494,140.853,467.276,42.494,140.854,0.052,15015,5405,上長和,長流川,
528,42.555,140.885,175.764,42.555,140.885,0.038,15038,5361,壮瞥川,壮瞥川,
529,42.592,140.792,1.939,42.592,140.792,0.049,14971,5334,洞爺湖,壮瞥川,
530,42.678,141.717,194.099,42.677,141.716,0.198,15637,5272,沼の端,勇払川,
531,42.69,141.713,184.685,42.69,141.714,0.081,15634,5264,ウトナイ下流,勇払川,
532,42.701,141.713,74.93,42.704,141.709,0.503,15634,5256,ウトナイ上流,美々川,
533,42.72,141.876,230.433,42.721,141.876,0.099,15751,5242,厚真大橋,厚真川,
534,42.673,141.849,269.447,42.673,141.851,0.139,15732,5276,共栄橋,厚真川,
535,42.626,141.853,2.07,42.626,141.853,0.051,15735,5310,浜厚真,厚真川,
536,42.722,141.897,23.868,42.721,141.897,0.07,15766,5241,ウクル川,ウクル川,
537,42.447,142.284,265.903,42.447,142.284,0.053,16045,5439,豊田,厚別川,
538,42.52,142.333,133.555,42.52,142.333,0.032,16080,5386,厚別川新和,厚別川,
539,42.397,142.374,363.105,42.397,142.375,0.078,16110,5475,姉去,新冠川,
540,42.345,142.387,666.416,42.347,142.385,0.256,16119,5512,目名,静内川,
541,42.335,142.363,4.423,42.336,142.363,0.067,16102,5519,古川,古川,
542,42.26,142.763,196.053,42.261,142.763,0.067,16390,5573,野深,元浦川,
543,42.176,142.852,304.132,42.176,142.851,0.096,16454,5634,上杵臼,日高幌別川,
544,42.816,141.822,116.195,42.816,141.821,0.045,15712,5173,安平橋,安平川,
545,42.724,141.802,167.64,42.724,141.803,0.082,15698,5239,源武橋,安平川,
546,42.122,140.017,70.063,42.119,140.018,0.286,14413,5673,見市川,見市川,
547,41.973,140.165,47.187,41.973,140.165,0.035,14519,5780,姫川,姫川,
548,41.791,140.124,263.775,41.791,140.123,0.108,14490,5911,天野川,天野川,
549,41.701,140.027,176.14,41.702,140.026,0.17,14420,5976,石崎川,石崎川,
550,41.435,140.128,38.926,41.436,140.128,0.076,14493,6167,及部川,及部川,
551,41.812,140.137,22.954,41.812,140.137,0.027,14499,5896,目名橋,目名川,
552,41.674,140.426,116.334,41.674,140.426,0.043,14707,5995,木古内川,木古内川,
553,41.442,140.227,5.46,41.443,140.227,0.071,14564,6162,吉岡川,吉岡川,
554,41.602,140.328,121.972,41.601,140.329,0.127,14637,6047,知内川,知内川,
555,41.485,140.251,54.882,41.485,140.251,0.053,14581,6131,福島川,福島川,
556,41.767,141.078,45.465,41.768,141.078,0.082,15177,5928,尻岸内川,尻岸内川,
557,41.801,140.872,118.442,41.8,140.871,0.089,15028,5904,亀尾,汐泊川,
558,41.783,140.808,60.294,41.782,140.808,0.077,14982,5917,松倉川,松倉川,
559,41.787,140.783,15.851,41.786,140.783,0.094,14964,5914,鮫川,鮫川,
560,41.809,140.756,34.965,41.809,140.756,0.022,14945,5898,富岡,亀田川,
561,41.82,140.716,3.385,41.82,140.716,0.015,14916,5890,常磐川,常磐川,
562,41.84,140.691,120.958,41.839,140.691,0.065,14898,5876,久根別川,久根別川,
563,41.856,140.651,107.101,41.856,140.652,0.111,14869,5864,大野川,大野川,
564,41.816,140.622,16.356,41.816,140.622,0.04,14848,5893,流渓川,流渓川,
565,41.77,140.602,96.298,41.77,140.602,0.016,14834,5926,茂辺地川,茂辺地川,
566,41.824,140.731,8.506,41.824,140.731,0.04,14927,5887,石川,石川,
567,41.901,140.691,10.133,41.901,140.691,0.034,14898,5832,下鳴川,鳴川,
568,42.191,140.417,125.074,42.191,140.417,0.03,14701,5623,落部川,落部川,
569,42.263,140.215,241.614,42.263,140.215,0.041,14555,5571,遊楽部川上流,遊楽部川,
570,42.263,140.266,328.726,42.264,140.266,0.089,14592,5571,遊楽部川,遊楽部川,
571,42.216,140.385,120.825,42.216,140.384,0.117,14678,5605,野田追川,野田追川,
572,42.106,140.566,67.674,42.107,140.566,0.083,14808,5684,鳥崎川,鳥崎川,
573,42.045,140.808,235.389,42.045,140.807,0.054,14982,5728,折戸川,折戸川,
574,42.362,141.045,13.397,42.362,141.044,0.095,15153,5500,上鷲別橋,鷲別川,
575,42.385,141.072,8.961,42.385,141.072,0.061,15172,5483,富穂橋,富岸川,
576,42.474,140.859,45.056,42.474,140.859,0.034,15019,5419,気門別川,気門別川,
577,42.355,141.02,5.663,42.355,141.021,0.072,15135,5505,杜下橋,知利別川,
578,42.549,140.353,93.161,42.549,140.354,0.056,14655,5365,長万部川,長万部川,
579,42.437,140.313,49.738,42.437,140.313,0.026,14626,5446,国縫川,国縫川,
580,42.595,140.641,36.381,42.594,140.641,0.126,14862,5332,小鉾岸川,小鉾岸川,
581,42.642,141.572,39.919,42.642,141.572,0.056,15532,5298,高丘,苫小牧川,
582,42.628,141.488,35.555,42.628,141.488,0.054,15472,5308,錦多峰,錦多峰川,
583,42.58,141.423,22.436,42.58,141.423,0.017,15425,5343,社台,別々川,
584,42.622,141.266,73.194,42.622,141.267,0.099,15312,5313,御料地,白老川,
585,42.558,141.337,96.535,42.557,141.337,0.073,15363,5359,大昭和下流,白老川,
586,42.52,141.267,81.647,42.52,141.267,0.033,15313,5386,敷生,敷生川,
587,42.449,141.169,51.871,42.449,141.169,0.04,15242,5437,登別橋,登別川,
588,42.427,141.109,5.256,42.427,141.109,0.01,15199,5453,千歳町,岡志別川,
589,42.405,141.099,79.274,42.405,141.098,0.108,15192,5469,来福橋,胆振幌別川,
590,42.542,141.292,34.717,42.543,141.292,0.076,15331,5370,ウヨロ橋,ウヨロ川,
591,42.412,141.103,23.301,42.412,141.103,0.045,15195,5464,相生橋,来馬川,
592,42.481,142.212,21.733,42.482,142.212,0.085,15993,5414,慶能舞川,慶能舞川,
593,42.524,142.158,74.817,42.524,142.158,0.045,15954,5383,庫富橋,日高門別川,
594,42.162,142.791,5.446,42.162,142.791,0.022,16410,5644,乳呑川,乳呑川,
595,42.187,142.772,53.922,42.187,142.771,0.049,16396,5626,タンネベツ沢,向別川,
596,42.272,142.69,96.234,42.272,142.689,0.072,16337,5565,歌笛,ケリマイ川,
597,42.276,142.609,120.826,42.275,142.611,0.18,16279,5562,蓬栄,三石川,
598,42.317,142.466,47.798,42.317,142.466,0.04,16176,5532,あけぼの橋,捫別川,
599,42.165,142.951,69.662,42.165,142.951,0.052,16525,5642,岡田,様似川,
600,42.38,139.899,137.776,42.379,139.899,0.099,14328,5487,太櫓川,太櫓川,
601,42.658,141.623,14.51,42.658,141.624,0.096,15569,5287,三光町,苫小牧幌内川,
602,42.531,141.285,2.362,42.531,141.286,0.055,15326,5378,フシコベツ川,フシコベツ川,
603,42.348,142.356,3.29,42.348,142.356,0.022,16097,5510,真沼津川,真沼津川,
604,40.552,140.281,197.244,40.552,140.281,0.023,14603,6803,村市,岩木川,
605,40.581,140.31,209.924,40.581,140.311,0.056,14624,6782,堰口,岩木川,
606,40.592,140.417,402.628,40.592,140.417,0.05,14701,6774,上岩木橋,岩木川,
607,40.662,140.459,1275.391,40.661,140.459,0.089,14731,6724,三世寺,岩木川,
608,40.694,140.453,1313.341,40.694,140.454,0.051,14727,6701,幡龍橋,岩木川,
609,40.809,140.438,1693.502,40.81,140.438,0.109,14716,6618,五所川原,岩木川,
610,40.91,140.419,1937.447,40.911,140.418,0.09,14702,6545,繁田,岩木川,
611,41.017,140.372,4.871,41.015,140.372,0.265,14668,6468,若宮,岩木川,
612,41.035,140.328,2.7,41.036,140.331,0.221,14637,6455,十三,岩木川,
613,41.053,140.36,47.667,41.054,140.36,0.068,14660,6442,相内,相内川,
614,41.002,140.41,94.691,41.002,140.41,0.035,14696,6479,高根,鳥谷川,
615,40.834,140.44,58.455,40.834,140.439,0.051,14717,6600,川山,旧十川,
616,40.685,140.556,79.495,40.685,140.556,0.05,14801,6707,下十川,十川,
617,40.749,140.513,213.611,40.749,140.513,0.038,14770,6661,五林平,十川,
618,40.637,140.448,36.549,40.637,140.449,0.094,14723,6742,独狐,後長根川,
619,40.552,140.547,266.231,40.552,140.547,0.041,14794,6803,石川,平川,
620,40.52,140.566,143.684,40.52,140.566,0.016,14808,6826,大鰐,平川,
621,40.524,140.558,205.497,40.525,140.557,0.095,14802,6823,第一頭首工,平川,
622,40.63,140.502,418.882,40.631,140.502,0.127,14762,6747,豊平橋,平川,
623,40.645,140.495,811.737,40.645,140.495,0.019,14757,6736,百田,平川,
624,40.569,140.378,72.346,40.569,140.378,0.048,14673,6791,相馬,相馬川,
625,40.566,140.374,39.232,40.567,140.374,0.117,14670,6793,藤沢,相馬川,
626,40.587,140.283,18.764,40.587,140.282,0.059,14604,6778,大秋川,大秋川,
627,41.038,140.428,21.913,41.038,140.427,0.126,14709,6453,今泉,今泉川,
628,40.973,140.431,9.684,40.973,140.431,0.023,14711,6500,中里,中里川,
629,40.902,140.449,58.896,40.903,140.449,0.105,14724,6551,金木,金木川,
630,40.89,140.503,24.616,40.889,140.503,0.076,14763,6560,喜良市,小田川,
631,40.83,140.485,35.082,40.83,140.486,0.052,14750,6603,福泉,飯詰川,
632,40.862,140.455,42.62,40.862,140.455,0.025,14728,6580,長富,飯詰川,
633,40.815,140.463,29.159,40.814,140.463,0.067,14734,6614,漆川,松野木川,
634,40.713,140.597,55.485,40.713,140.596,0.05,14830,6687,浪岡,浪岡川,
635,40.523,140.723,125.838,40.524,140.723,0.12,14921,6824,葛川,浅瀬石川,
636,40.608,140.665,306.03,40.607,140.664,0.086,14879,6763,温湯,浅瀬石川,
637,40.641,140.53,327.199,40.641,140.529,0.072,14782,6739,大曲,浅瀬石川,
638,40.642,140.52,341.393,40.643,140.52,0.072,14775,6738,朝日橋,浅瀬石川,
639,40.608,140.68,67.73,40.607,140.68,0.072,14890,6763,中野川,中野川,
640,40.567,140.485,31.048,40.567,140.485,0.053,14750,6792,大和沢,大和沢川,
641,40.509,140.535,51.321,40.509,140.534,0.121,14786,6834,三ツ目内,三ツ目内川,
642,40.519,140.563,58.783,40.519,140.563,0.033,14806,6827,虹貝,虹貝川,
643,40.66,140.435,24.715,40.66,140.435,0.058,14714,6725,高杉,大蜂川,
644,40.877,140.347,132.831,40.877,140.346,0.046,14650,6569,館岡橋,山田川,
645,40.972,140.377,248.041,40.971,140.377,0.059,14672,6501,豊富,山田川,
646,40.54,140.322,14.2,40.539,140.322,0.076,14632,6812,舟打,作沢川,
647,40.59,140.448,1.143,40.59,140.447,0.09,14723,6776,寺沢川合流,新土淵川,
648,40.577,140.459,13.97,40.577,140.459,0.01,14731,6785,土淵川分流,新土淵川,
649,40.599,140.44,2.119,40.599,140.443,0.29,14717,6769,土淵川開水路,新土淵川,
650,40.603,140.538,71.204,40.604,140.538,0.061,14788,6766,杉館,引座川,
651,40.645,140.484,5.104,40.645,140.484,0.015,14749,6736,平川合流点,加藤川,
652,40.694,140.43,9.276,40.693,140.43,0.084,14710,6701,旧大蜂川,旧大蜂川,
653,41.013,140.427,30.654,41.013,140.427,0.023,14708,6471,薄市,薄市川,
654,40.597,140.503,7.404,40.597,140.504,0.069,14763,6771,腰巻,腰巻川,
655,40.738,141.244,344.152,40.738,141.244,0.031,15296,6669,上野,高瀬川,
656,40.741,141.277,10.26,40.742,141.277,0.115,15320,6667,沼崎,高瀬川,
657,40.76,141.322,1.384,40.758,141.326,0.463,15352,6653,鶴ヶ崎,高瀬川,
658,40.697,141.158,68.441,40.697,141.157,0.075,15234,6699,七戸,高瀬川,
659,40.82,141.328,731.98,40.818,141.332,0.381,15357,6610,小川原湖,高瀬川,
660,40.841,141.373,793.37,40.841,141.372,0.079,15389,6595,高瀬橋,高瀬川,
661,40.847,141.38,795.377,40.846,141.379,0.094,15394,6591,高瀬川,高瀬川,
662,40.887,141.39,859.485,40.886,141.39,0.095,15401,6562,河口,高瀬川,
663,40.694,141.324,37.23,40.693,141.325,0.1,15354,6701,姉沼川,姉沼川,
664,40.715,141.278,8.164,40.714,141.279,0.079,15321,6686,砂土路川,砂土路川,
665,40.778,141.258,62.865,40.778,141.258,0.061,15306,6640,土場川,土場川,
666,40.67,141.355,6.483,40.67,141.355,0.02,15376,6718,古間木山,古間木川,
667,40.78,141.212,34.04,40.78,141.212,0.022,15273,6639,乙供,赤川,
668,40.753,141.233,44.673,40.754,141.233,0.066,15288,6658,赤川,赤川,
669,40.748,141.185,129.436,40.748,141.186,0.05,15254,6662,天間舘,坪川,
670,40.735,141.158,51.939,40.736,141.157,0.085,15234,6671,向中野,中野川,
671,40.699,141.32,14.379,40.7,141.32,0.078,15351,6697,中津川,中津川,
672,40.444,141.348,1793.449,40.444,141.348,0.029,15371,6881,剣吉,馬淵川,
673,40.485,141.428,1868.992,40.485,141.429,0.064,15429,6851,櫛引橋上流,馬淵川,
674,40.485,141.428,1868.992,40.486,141.429,0.079,15429,6851,櫛引橋,馬淵川,
675,40.502,141.445,2000.325,40.502,141.445,0.015,15441,6839,尻内橋,馬淵川,
676,40.516,141.47,2005.078,40.517,141.47,0.114,15459,6829,大橋,馬淵川,
677,40.534,141.491,2037.09,40.534,141.491,0.005,15474,6816,新大橋,馬淵川,
678,40.408,141.272,1706.208,40.408,141.272,0.057,15316,6907,馬淵南部,馬淵川,
679,40.438,141.198,30.525,40.438,141.198,0.023,15263,6885,西越,浅水川,
680,40.517,141.397,110.561,40.517,141.396,0.06,15406,6828,桜沢,浅水川,
681,40.426,141.335,51.262,40.426,141.334,0.124,15362,6894,下名久井,如来堂川,
682,40.402,141.238,84.777,40.402,141.238,0.019,15292,6911,二又,猿辺川,
683,40.29,141.078,105.138,40.29,141.079,0.063,15177,6992,上郷,熊原川,
684,40.381,141.258,241.122,40.381,141.256,0.143,15306,6926,三戸,熊原川,
685,40.387,141.269,242.84,40.387,141.269,0.031,15314,6922,橋ノ下,熊原川,
686,40.353,141.127,23.448,40.354,141.128,0.098,15212,6946,川向,種子川,
687,40.576,140.978,305.854,40.575,140.979,0.09,15105,6786,焼山,奥入瀬川,
688,40.594,141.148,493.107,40.595,141.147,0.159,15227,6773,中掫,奥入瀬川,
689,40.587,141.247,552.301,40.587,141.247,0.045,15298,6778,相坂,奥入瀬川,
690,40.598,141.315,730.618,40.598,141.314,0.052,15347,6770,鶴喰,奥入瀬川,
691,40.594,141.434,789.537,40.594,141.433,0.091,15433,6773,百石,奥入瀬川,
692,40.541,141.259,53.388,40.541,141.259,0.004,15307,6811,米田,後藤川,
693,40.588,141.133,30.252,40.588,141.132,0.058,15216,6777,深堀,生内川,
694,40.61,141.106,42.368,40.611,141.106,0.068,15197,6761,石渡,熊ノ沢川,
695,40.58,141.095,19.809,40.58,141.095,0.02,15189,6783,仙ノ沢,片淵川,
696,40.597,141.09,34.377,40.597,141.089,0.072,15185,6771,中里,中里川,
697,40.478,141.212,120.828,40.478,141.212,0.055,15273,6856,又重,五戸川,
698,40.522,141.294,159.426,40.522,141.293,0.082,15332,6825,川原町,五戸川,
699,40.577,141.441,220.53,40.577,141.441,0.009,15438,6785,尻引,五戸川,
700,40.42,141.491,437.131,40.42,141.491,0.016,15474,6898,島守,新井田川,
701,40.431,141.516,445.361,40.431,141.516,0.028,15492,6890,巻の下,新井田川,
702,40.472,141.492,1.719,40.472,141.493,0.076,15475,6861,田中,新井田川,
703,40.492,141.516,517.268,40.493,141.515,0.108,15492,6846,新井田,新井田川,
704,40.473,141.528,3.382,40.473,141.529,0.046,15501,6860,松舘,松館川,
705,40.724,140.744,72.639,40.724,140.744,0.041,14936,6679,大柳辺,堤川,
706,40.77,140.726,80.807,40.77,140.726,0.03,14923,6646,大野,堤川,
707,40.794,140.76,95.066,40.794,140.76,0.045,14948,6629,新妙見橋,堤川,
708,40.812,140.766,163.455,40.812,140.766,0.022,14952,6616,筒井,堤川,
709,40.822,140.766,267.058,40.822,140.766,0.052,14952,6609,甲田橋,堤川,
710,40.778,140.767,31.095,40.779,140.768,0.08,14953,6640,横内,横内川,
711,40.798,140.778,101.887,40.798,140.778,0.041,14961,6626,駒込川橋,駒込川,
712,40.809,140.777,102.434,40.808,140.777,0.114,14960,6618,南桜川,駒込川,
713,40.583,139.937,48.859,40.583,139.937,0.044,14355,6781,岩崎,笹内川,
714,40.683,139.974,116.913,40.683,139.974,0.047,14382,6709,追良瀬下流,追良瀬川,
715,40.745,140.178,171.986,40.745,140.179,0.048,14529,6664,日照田,赤石川,
716,40.756,140.233,139.938,40.756,140.233,0.042,14568,6656,中村,中村川,
717,40.778,140.27,36.035,40.779,140.27,0.06,14595,6640,安田橋,鳴沢川,
718,41.127,140.309,11.145,41.127,140.309,0.01,14623,6389,山朝橋,小泊川,
719,41.188,140.442,31.498,41.188,140.442,0.038,14719,6345,増川川,増川川,
720,41.178,140.498,66.824,41.178,140.498,0.052,14759,6352,大川平,今別川,
721,41.052,140.585,77.128,41.052,140.586,0.05,14822,6443,南沢,蟹田川,
722,40.61,141.423,18.391,40.61,141.423,0.047,15425,6761,中野平,明神川,
723,40.927,140.647,22.568,40.927,140.646,0.047,14866,6533,六枚橋,六枚橋川,
724,40.851,140.694,10.97,40.85,140.694,0.08,14900,6588,天田内川,天田内川,
725,40.826,140.665,64.393,40.825,140.664,0.091,14879,6606,新城,新城川,
726,40.813,140.692,17.168,40.813,140.692,0.038,14899,6615,遊水地外水位,沖館川,
727,40.816,140.699,19.25,40.815,140.699,0.111,14904,6613,越流堤内水位,沖館川,
728,40.816,140.699,19.25,40.816,140.699,0.027,14904,6613,越流堤外水位,沖館川,
729,40.819,140.706,20.475,40.819,140.706,0.035,14909,6611,下池内水位,沖館川,
730,40.819,140.706,20.475,40.819,140.706,0.035,14909,6611,下池外水位,沖館川,
731,40.828,140.72,54.449,40.829,140.72,0.06,14919,6604,沖館川下流,沖館川,
732,40.817,140.72,26.694,40.817,140.721,0.083,14919,6612,西滝,西滝川,
733,40.824,140.795,12.01,40.824,140.795,0.036,14973,6607,赤川,赤川,
734,40.823,140.869,75.372,40.824,140.869,0.122,15026,6608,滝沢,野内川,
735,40.838,140.823,89.821,40.838,140.824,0.094,14993,6597,新野内橋,野内川,
736,40.887,140.866,5.623,40.887,140.865,0.084,15024,6562,銀杏橋,浅虫川,
737,40.899,140.963,22.807,40.899,140.962,0.106,15094,6553,内童子,小湊川,
738,40.927,140.959,1.192,40.927,140.96,0.083,15091,6533,小湊,小湊川,
739,40.919,141.006,39.16,40.919,141.006,0.036,15125,6539,清水川,清水川,
740,40.809,141.056,12.582,40.809,141.056,0.021,15161,6618,高森,野辺地川,
741,40.819,141.103,20.459,40.818,141.104,0.094,15195,6611,添ノ沢,野辺地川,
742,40.828,141.124,28.653,40.829,141.125,0.083,15210,6604,下清水目,野辺地川,
743,40.842,141.13,36.437,40.843,141.131,0.119,15214,6594,中屋敷,野辺地川,
744,40.858,141.119,9.565,40.857,141.118,0.095,15206,6583,観音林脇,枇杷野川,
745,41.105,141.253,10.307,41.105,141.254,0.046,15303,6405,桧木,桧木川,
746,41.319,141.315,38.419,41.319,141.314,0.057,15347,6251,鹿橋,田名部川,
747,41.294,141.212,9.955,41.292,141.208,0.375,15273,6269,田名部,田名部川,
748,41.297,141.212,9.327,41.296,141.212,0.061,15273,6267,小川,小川,
749,41.276,141.203,156.183,41.276,141.204,0.055,15267,6282,新田名部,新田名部川,
750,41.26,140.99,165.713,41.26,140.989,0.067,15113,6293,新田,川内川,
751,41.148,140.816,28.059,41.148,140.816,0.009,14988,6374,脇野沢,脇野沢川,
752,41.328,140.813,13.182,41.328,140.813,0.055,14986,6244,福浦,福浦川,
753,41.43,140.869,29.687,41.429,140.869,0.098,15026,6171,古佐井,古佐井川,
754,41.391,141.124,152.647,41.391,141.124,0.026,15210,6199,小目名,大畑川,
755,41.401,141.153,166.134,41.402,141.153,0.15,15231,6192,大畑,大畑川,
756,41.384,141.176,44.349,41.384,141.176,0.026,15247,6204,正津川,正津川,
757,40.938,141.29,25.49,40.939,141.289,0.102,15329,6525,戸鎖,戸鎖川,
758,40.928,140.948,37.28,40.928,140.949,0.105,15083,6532,盛田,盛田川,
759,40.13,141.365,386.189,40.13,141.365,0.039,15383,7107,冬部,馬淵川,
760,40.259,141.291,1142.13,40.259,141.291,0.005,15330,7014,石切所,馬淵川,
761,40.201,141.301,622.634,40.201,141.3,0.067,15337,7056,岩根橋,馬淵川,
762,40.042,141.431,207.291,40.042,141.431,0.046,15431,7170,田子,馬淵川,
763,40.485,141.428,1868.992,40.486,141.429,0.079,15429,6851,櫛引橋,馬淵川,
764,40.534,141.491,2037.09,40.534,141.491,0.005,15474,6816,新大橋,馬淵川,
765,40.408,141.272,1706.208,40.408,141.272,0.057,15316,6907,馬淵南部,馬淵川,
766,40.192,141.172,306.976,40.192,141.171,0.059,15244,7062,中央橋,安比川,
767,40.115,141.055,141.309,40.115,141.056,0.108,15160,7118,五日市橋,安比川,
768,40.237,141.234,403.706,40.237,141.233,0.09,15289,7030,似鳥,安比川,
769,40.112,141.316,103.469,40.112,141.316,0.022,15348,7120,平糠橋,平糠川,
770,39.872,141.178,617.493,39.872,141.178,0.066,15249,7293,芋田橋,北上川,
771,39.834,141.162,1074.038,39.834,141.161,0.069,15237,7320,船田橋,北上川,
772,39.753,141.148,1185.376,39.753,141.148,0.052,15227,7378,四十四田,北上川,
773,39.713,141.131,1193.369,39.713,141.131,0.031,15215,7407,館坂橋,北上川,
774,39.692,141.149,2184.838,39.693,141.149,0.076,15228,7422,明治橋,北上川,
775,39.552,141.174,2572.836,39.552,141.176,0.146,15246,7523,紫波橋,北上川,
776,39.494,141.155,2756.091,39.494,141.156,0.102,15232,7565,大正橋,北上川,
777,39.391,141.127,8.472,39.391,141.127,0.008,15212,7639,後川（内）,北上川,
778,39.391,141.128,8.49,39.391,141.128,0.041,15213,7639,後川（外）,北上川,
779,39.392,141.13,4227.43,39.392,141.13,0.042,15214,7638,朝日橋,北上川,
780,39.281,141.124,1.912,39.281,141.126,0.15,15210,7718,広瀬川（内）,北上川,
781,39.281,141.124,1.912,39.281,141.126,0.15,15210,7718,広瀬川（外）,北上川,
782,39.278,141.123,2.011,39.279,141.124,0.109,15209,7720,大曲川（内水）,北上川,
783,39.278,141.123,2.011,39.278,141.124,0.106,15209,7720,大曲川（外水）,北上川,
784,39.284,141.13,4546.789,39.285,141.13,0.108,15214,7716,珊瑚橋,北上川,
785,39.26,141.122,5464.279,39.261,141.122,0.077,15208,7733,男山,北上川,
786,39.252,141.115,5465.899,39.252,141.114,0.052,15203,7739,国見橋,北上川,
787,39.197,141.127,5547,39.196,141.127,0.059,15212,7779,金ヶ崎橋,北上川,
788,39.169,141.155,5887.367,39.168,141.155,0.084,15232,7799,桜木橋,北上川,
789,39.065,141.163,6417.599,39.065,141.162,0.113,15238,7874,大曲橋,北上川,
790,39.02,141.135,6508.23,39.02,141.136,0.052,15218,7906,箱石,北上川,
791,38.992,141.124,6699.392,38.992,141.124,0.048,15210,7926,高館橋,北上川,
792,38.948,141.172,24.697,38.948,141.171,0.046,15244,7958,狐禅寺,北上川,
793,38.951,141.191,7096.145,38.951,141.191,0.034,15258,7956,相川,北上川,
794,38.897,141.269,96.723,38.896,141.269,0.062,15314,7995,千厩（内水）,北上川,
795,38.897,141.269,96.723,38.896,141.269,0.062,15314,7995,千厩（外水）,北上川,
796,38.899,141.263,7516.684,38.899,141.263,0.039,15310,7993,諏訪前,北上川,
797,38.842,141.263,7650.763,38.843,141.263,0.073,15310,8034,七日町,北上川,
798,38.765,141.273,7886.792,38.764,141.271,0.18,15317,8090,大泉,北上川,
799,38.703,141.287,8037.382,38.704,141.288,0.119,15327,8134,米谷,北上川,
800,38.658,141.287,8054.609,38.659,141.286,0.167,15327,8167,登米,北上川,
801,38.602,141.297,8087.909,38.602,141.291,0.481,15334,8207,脇谷上流,北上川,
802,38.515,141.308,8166.117,38.515,141.31,0.21,15342,8270,飯野川上流,北上川,
803,39.963,141.216,100.508,39.963,141.216,0.022,15276,7227,下苗代沢,北上川,
804,38.833,141.188,73.704,38.833,141.188,0.044,15256,8041,老松橋,金流川,
805,38.915,141.33,61.716,38.915,141.33,0.048,15358,7982,神の田,千厩川,
806,38.897,141.29,87.125,38.896,141.29,0.068,15329,7995,矢作,千厩川,
807,38.928,141.34,54.887,38.928,141.339,0.072,15365,7972,宮田,千厩川,
808,38.976,141.24,346.849,38.976,141.24,0.05,15293,7938,十二木橋,砂鉄川,
809,38.93,141.253,374.095,38.93,141.254,0.048,15303,7971,妻神,砂鉄川,
810,38.933,141.152,21.464,38.932,141.153,0.106,15230,7969,吸川（内水）,磐井川,
811,38.933,141.152,21.464,38.933,141.153,0.088,15230,7969,吸川（外水）,磐井川,
812,39.016,141.091,150.957,39.016,141.091,0.004,15186,7909,川西橋,衣川,
813,39.037,141.117,22.565,39.037,141.118,0.06,15205,7894,白鳥橋,白鳥川,
814,39.235,141.312,53.998,39.236,141.312,0.066,15345,7751,鳴瀬橋,人首川,
815,39.185,141.183,100.538,39.186,141.182,0.085,15252,7787,岩谷堂,人首川,
816,39.205,141.159,100.593,39.205,141.16,0.085,15235,7773,岩瀬橋,広瀬川,
817,39.102,140.87,76.632,39.102,140.871,0.075,15027,7847,下嵐江,胆沢川,
818,39.117,140.917,184.677,39.117,140.919,0.147,15061,7836,胆沢,胆沢川,
819,39.17,141.097,221.583,39.171,141.096,0.106,15190,7798,胆沢川橋,胆沢川,
820,39.38,141.053,148.866,39.379,141.054,0.106,15159,7647,上根子橋,豊沢川,
821,39.378,141.106,158.625,39.379,141.107,0.088,15197,7648,不動橋,豊沢川,
822,39.455,141.174,258.641,39.455,141.174,0.031,15246,7593,稗貫川橋,稗貫川,
823,39.467,141.281,224.769,39.467,141.282,0.076,15323,7584,大迫,稗貫川,
824,39.691,140.945,139.893,39.69,140.945,0.109,15081,7423,春木場,雫石川,
825,39.69,141.028,634.352,39.691,141.026,0.264,15141,7424,御所,雫石川,
826,39.698,141.069,665.531,39.698,141.067,0.151,15170,7418,滝太橋,雫石川,
827,39.705,141.122,767.365,39.704,141.122,0.104,15208,7413,太田橋,雫石川,
828,39.715,141.176,195.527,39.715,141.175,0.075,15247,7406,山岸,中津川,
829,39.705,141.237,68.596,39.706,141.236,0.144,15291,7413,木々塚,中津川,
830,39.713,141.185,83.607,39.714,141.185,0.097,15254,7407,薬師神社前,中津川,
831,38.753,141.21,90.632,38.754,141.211,0.078,15272,8098,大田沼,夏川,
832,38.765,141.208,83.001,38.765,141.207,0.071,15270,8090,舟場,夏川,
833,38.781,141.16,48.647,38.782,141.16,0.091,15236,8078,小谷地,夏川,
834,38.848,141.294,77.67,38.848,141.294,0.024,15332,8030,黄海,黄海川,
835,38.997,141.258,41.079,38.997,141.258,0.061,15306,7923,西本町,猿沢川,
836,38.994,141.326,28.974,38.994,141.326,0.038,15355,7925,摺沢,曽慶川,
837,39.016,141.398,67.12,39.017,141.398,0.115,15407,7909,川内,砂鉄川,
838,38.994,141.251,298.372,38.995,141.251,0.141,15301,7925,長坂,砂鉄川,
839,38.994,141.308,32.955,38.994,141.307,0.062,15342,7925,流矢,砂鉄川,
840,38.955,141.252,357.74,38.955,141.253,0.081,15302,7953,中通川樋門（外）,砂鉄川,
841,38.955,141.252,357.74,38.955,141.253,0.081,15302,7953,中通川樋門（内）,砂鉄川,
842,38.922,141.134,13.805,38.922,141.134,0.053,15217,7977,吸川,吸川,
843,38.942,141.052,168.518,38.943,141.052,0.071,15158,7962,五串,磐井川,
844,38.927,141.128,268.317,38.927,141.128,0.042,15213,7973,釣山,磐井川,
845,39.005,141.11,175.298,39.005,141.111,0.053,15200,7917,徳沢川樋門（外）,徳沢川,
846,39.006,141.11,8.626,39.006,141.111,0.058,15200,7916,徳沢川樋門（内）,徳沢川,
847,39.134,140.909,8.22,39.134,140.91,0.084,15055,7824,尿前,尿前川,
848,39.077,140.865,44.332,39.077,140.864,0.051,15023,7865,前川,前川,
849,39.241,140.991,50.938,39.241,140.991,0.004,15114,7747,新田,夏油川,
850,39.281,141.049,1.284,39.281,141.049,0.038,15156,7718,岩崎,夏油川,
851,39.909,141.077,30.015,39.909,141.076,0.093,15176,7266,田頭,松川,
852,39.874,141.16,411.715,39.874,141.161,0.06,15236,7291,古川橋,松川,
853,39.398,140.769,266.666,39.399,140.769,0.122,14954,7634,新町,和賀川,
854,39.302,140.885,577.036,39.302,140.885,0.038,15038,7703,湯田,和賀川,
855,39.29,141.072,882.165,39.291,141.071,0.164,15172,7712,広表,和賀川,
856,39.298,141.381,103.194,39.298,141.381,0.024,15395,7706,小友川,小友川,
857,39.328,141.53,36.47,39.328,141.528,0.17,15502,7684,東舘,来内川,
858,39.335,141.538,104.056,39.335,141.538,0.049,15508,7679,上早瀬橋,早瀬川,
859,39.359,141.567,108.075,39.358,141.567,0.119,15529,7662,福泉寺橋,小烏瀬川,
860,39.36,141.549,321.407,39.36,141.55,0.076,15516,7661,松崎,猿ヶ石川,
861,39.32,141.46,532.085,39.32,141.461,0.053,15452,7690,二日町,猿ヶ石川,
862,39.342,141.319,731.787,39.343,141.319,0.074,15350,7674,田瀬,猿ヶ石川,
863,39.362,141.283,868.537,39.361,141.283,0.094,15324,7660,谷内,猿ヶ石川,
864,39.363,141.551,321.218,39.364,141.55,0.107,15517,7659,駒木,猿ヶ石川,
865,39.299,141.403,567.57,39.3,141.403,0.087,15411,7705,沢田橋,猿ヶ石川,
866,39.392,141.152,958.257,39.392,141.151,0.101,15230,7638,安野,猿ヶ石川,
867,39.477,141.253,234.601,39.477,141.253,0.042,15303,7577,亀ヶ森,稗貫川,
868,39.553,141.108,51.743,39.553,141.108,0.06,15198,7522,志和,滝名川,
869,39.617,141.144,11.385,39.617,141.144,0.046,15224,7476,北矢幅（上流）,岩崎川,
870,39.617,141.144,11.385,39.617,141.144,0.046,15224,7476,北矢幅（下流）,岩崎川,
871,39.708,141.11,92.62,39.708,141.11,0.053,15200,7411,諸葛橋,諸葛川,
872,39.748,141.119,2.707,39.749,141.118,0.136,15206,7382,下厨川,木賊川,
873,39.653,140.953,117.538,39.654,140.953,0.071,15087,7450,矢川,南川,
874,39.691,140.956,159.062,39.691,140.958,0.15,15089,7423,岩持,葛根田川,
875,39.781,140.949,102.763,39.782,140.949,0.088,15084,7358,舘篠橋,葛根田川,
876,39.722,141.185,108.97,39.722,141.186,0.073,15254,7401,米内川,米内川,
877,39.051,141.366,87.248,39.051,141.366,0.034,15384,7884,興田,興田川,
878,39.519,141.195,63.368,39.519,141.195,0.03,15261,7547,彦部橋,彦部川,
879,39.69,141.169,148.743,39.69,141.168,0.079,15242,7424,葛西橋,簗川,
880,39.392,141.119,7.529,39.392,141.119,0.046,15206,7638,下小舟渡,後川,
881,40.217,140.67,1173.571,40.217,140.67,0.042,14883,7044,十二所,米代川,
882,40.244,140.741,1098.868,40.244,140.741,0.027,14934,7025,末広,米代川,
883,40.26,140.773,238.615,40.261,140.773,0.065,14957,7013,毛馬内2,大湯川,
884,40.27,140.762,176.631,40.269,140.761,0.144,14949,7006,毛馬内1,小坂川,
885,40.42,141.491,437.131,40.42,141.491,0.016,15474,6898,島守,新井田川,
886,40.492,141.516,517.268,40.493,141.515,0.108,15492,6846,新井田,新井田川,
887,40.473,141.528,3.382,40.473,141.529,0.046,15501,6860,松舘,松館川,
888,40.347,141.462,171.64,40.346,141.462,0.061,15453,6951,駒木,雪谷川,
889,40.324,141.467,164.713,40.325,141.467,0.083,15457,6967,昭和橋,雪谷川,
890,40.344,141.423,181.38,40.343,141.423,0.084,15425,6953,高家,瀬月内川,
891,40.342,141.422,181.312,40.343,141.422,0.081,15424,6954,瀬月内橋,瀬月内川,
892,40.208,141.422,99.573,40.207,141.421,0.083,15424,7051,沢田橋,瀬月内川,
893,40.19,141.738,261.486,40.189,141.738,0.067,15652,7064,生出町,久慈川,
894,40.192,141.765,268.455,40.193,141.764,0.087,15671,7062,八日町,久慈川,
895,40.152,141.574,23.652,40.152,141.574,0.028,15534,7091,山形,久慈川,
896,40.215,141.788,38.175,40.214,141.788,0.067,15688,7046,夏井,夏井川,
897,40.187,141.772,185.956,40.188,141.771,0.14,15676,7066,長内橋,長内川,
898,40.091,141.703,45.154,40.091,141.703,0.04,15627,7135,下戸鎖,長内川,
899,39.985,141.717,125.635,39.985,141.717,0.056,15637,7211,松林,安家川,
900,39.802,141.659,210.95,39.802,141.659,0.009,15595,7343,下町,小本川管内,
901,39.934,141.823,16.329,39.934,141.823,0.007,15713,7248,子木地,小本川管内,
902,39.841,141.89,698.616,39.841,141.89,0.035,15761,7315,赤鹿,小本川,
903,39.915,141.928,22.836,39.915,141.928,0.061,15789,7262,松前川,小本川,
904,39.858,141.674,19.921,39.858,141.674,0.048,15606,7303,穴沢,小本川,
905,39.599,141.681,538.343,39.599,141.68,0.113,15611,7489,川井,閉伊川,
906,39.619,141.806,785.704,39.619,141.806,0.035,15701,7475,茂市,閉伊川,
907,39.631,141.905,844.487,39.631,141.906,0.102,15772,7466,千徳,閉伊川,
908,39.617,141.905,55.489,39.617,141.905,0.042,15772,7476,田鎖橋,長沢川,
909,39.628,141.788,172.67,39.628,141.789,0.088,15688,7468,繁の木橋,刈屋川,
910,39.142,141.578,300.695,39.143,141.578,0.082,15537,7818,昭和橋,気仙川,
911,39.031,141.606,493.695,39.032,141.606,0.086,15557,7898,舘,気仙川,
912,39.194,141.601,59.386,39.194,141.6,0.064,15553,7781,上有住,気仙川,
913,39.024,141.59,95.313,39.025,141.589,0.092,15545,7903,味米,矢作川,
914,39.148,141.476,57.325,39.147,141.475,0.118,15463,7814,高屋敷,大股川,
915,40.303,141.655,58.075,40.303,141.654,0.089,15592,6982,萩の渡,有家川,
916,38.937,141.449,27.485,38.937,141.45,0.063,15444,7966,折壁,大川,
917,38.901,141.565,142.115,38.9,141.564,0.092,15527,7992,大川本町,大川,
918,39.577,141.937,152.104,39.577,141.936,0.069,15795,7505,新町,津軽石川,
919,39.337,141.869,136.133,39.336,141.869,0.093,15746,7678,日ノ神橋,鵜住居川,
920,39.33,141.89,140.943,39.329,141.89,0.102,15761,7683,大浜渡橋,鵜住居川,
921,39.091,141.708,95.202,39.091,141.706,0.142,15630,7855,権現堂橋,盛川,
922,39.088,141.713,124.21,39.088,141.713,0.028,15634,7857,中井大橋,盛川,
923,39.263,141.848,120.999,39.263,141.848,0.023,15731,7731,礼ヶ口,甲子川,
924,39.273,141.874,127.432,39.273,141.875,0.061,15750,7724,大渡橋,甲子川,
925,39.267,141.838,32.959,39.267,141.838,0.044,15724,7728,小川,小川川,
926,39.367,141.897,113.635,39.367,141.897,0.057,15766,7656,屋敷前,大槌川,
927,39.363,141.903,114.647,39.364,141.904,0.101,15771,7659,大槌橋,大槌川,
928,40.003,141.884,69.433,40.004,141.884,0.059,15757,7198,普代川,普代川,
929,39.477,141.949,21.201,39.477,141.95,0.059,15804,7577,山田,関口川,
930,40.113,141.816,35.252,40.114,141.816,0.09,15708,7119,野田（上流）,宇部川,
931,40.113,141.816,35.252,40.114,141.816,0.09,15708,7119,野田（下流）,宇部川,
932,40.283,141.627,15.073,40.283,141.628,0.088,15572,6997,大野,大野川,
933,39.116,141.813,13.886,39.116,141.813,0.017,15706,7837,越喜来橋,浦浜川,
934,39.053,141.79,6.345,39.054,141.789,0.077,15689,7882,野形橋,綾里川,
935,39.059,141.715,10.29,39.059,141.715,0.036,15635,7878,明神前,須崎川,
936,39.378,141.848,49.441,39.379,141.848,0.059,15731,7648,蕨打直橋,小鎚川,
937,39.713,141.131,1193.369,39.713,141.131,0.031,15215,7407,館坂橋,旧北上川,
938,39.692,141.149,2184.838,39.693,141.149,0.076,15228,7422,明治橋,北上川,
939,39.552,141.174,2572.836,39.552,141.176,0.146,15246,7523,紫波橋,北上川,
940,39.392,141.13,4227.43,39.392,141.13,0.042,15214,7638,朝日橋,北上川,
941,39.26,141.122,5464.279,39.261,141.122,0.077,15208,7733,男山,北上川,
942,39.169,141.155,5887.367,39.168,141.155,0.084,15232,7799,桜木橋,北上川,
943,39.065,141.163,6417.599,39.065,141.162,0.113,15238,7874,大曲橋,北上川,
944,38.948,141.172,24.697,38.948,141.171,0.046,15244,7958,狐禅寺,北上川,
945,38.899,141.263,7516.684,38.899,141.263,0.039,15310,7993,諏訪前,北上川,
946,38.765,141.273,7886.792,38.764,141.271,0.18,15317,8090,大泉,北上川,
947,38.703,141.287,8037.382,38.704,141.288,0.119,15327,8134,米谷,北上川,
948,38.658,141.287,8054.609,38.659,141.286,0.167,15327,8167,登米,北上川,
949,38.602,141.297,8087.909,38.602,141.291,0.481,15334,8207,脇谷上流,北上川,
950,38.602,141.298,8088.026,38.603,141.298,0.103,15335,8207,柳津,北上川,
951,38.533,141.306,8165.056,38.533,141.305,0.117,15341,8257,大堰,北上川,
952,38.533,141.306,8165.056,38.533,141.306,0.046,15341,8257,大堰下流,北上川,
953,38.515,141.308,8166.117,38.515,141.31,0.21,15342,8270,飯野川上流,北上川,
954,38.53,141.374,8.061,38.53,141.375,0.063,15390,8259,福地,北上川,
955,38.573,141.448,8.55,38.574,141.448,0.121,15443,8228,月浜,北上川,
956,38.585,141.476,1.465,38.583,141.479,0.393,15463,8219,白浜,北上川,
957,38.605,141.281,2.485,38.604,141.281,0.098,15323,8205,倉埣,北上川,
958,38.527,141.227,1803.535,38.526,141.227,0.121,15284,8261,和渕,旧北上川,
959,38.491,141.298,1877.932,38.491,141.298,0.009,15335,8287,大森,旧北上川,
960,38.42,141.312,1939.977,38.42,141.311,0.072,15345,8338,門脇,旧北上川,
961,38.798,140.655,19.622,38.798,140.655,0.015,14872,8066,橋元,大沢川,
962,38.512,141.408,5.693,38.511,141.407,0.105,15414,8272,原,富士川,
963,38.615,141.313,51.994,38.615,141.314,0.083,15346,8198,柳津,南沢川,
964,38.627,141.348,13.468,38.627,141.348,0.012,15371,8189,横山,南沢川,
965,38.799,140.66,140.289,38.799,140.661,0.061,14876,8065,轟,江合川,
966,38.735,140.702,58.367,38.736,140.702,0.066,14906,8111,大谷川,江合川,
967,38.749,140.723,278.217,38.75,140.723,0.077,14921,8101,末沢,江合川,
968,38.662,140.867,352.498,38.661,140.867,0.094,15025,8164,岩出山,江合川,
969,38.595,140.951,395.457,38.594,140.951,0.129,15085,8212,桜ノ目,江合川,
970,38.581,140.978,396.447,38.581,140.977,0.132,15105,8222,荒雄,江合川,
971,38.567,141.013,397.32,38.568,141.013,0.074,15130,8232,下谷地,江合川,
972,38.547,141.127,511.826,38.546,141.127,0.059,15212,8247,涌谷,江合川,
973,38.54,141.202,584.743,38.539,141.202,0.064,15266,8252,短台,江合川,
974,38.662,140.867,352.498,38.662,140.866,0.12,15025,8164,岩出山(宮城県),江合川,
975,38.787,141.09,555.13,38.787,141.09,0.042,15185,8074,大林,迫川,
976,38.747,140.953,161.578,38.746,140.953,0.072,15087,8103,真坂,迫川,
977,38.69,141.197,826.558,38.689,141.197,0.077,15262,8144,佐沼,迫川,
978,38.822,140.802,76.176,38.821,140.802,0.059,14978,8049,山内,迫川,
979,38.744,141.024,235.554,38.744,141.023,0.117,15138,8105,留場,迫川,
980,38.774,141.127,568.279,38.774,141.127,0.035,15212,8083,若柳,迫川,
981,38.731,141.162,570.997,38.731,141.162,0.033,15237,8114,三方島,迫川,
982,38.731,141.158,570.901,38.731,141.158,0.042,15234,8114,砂原水門,迫川,
983,38.745,141.153,570.378,38.745,141.154,0.049,15231,8104,若石大橋,迫川,
984,38.562,141.227,927.511,38.562,141.227,0.023,15284,8236,剣先,迫川,
985,38.748,141.322,91.853,38.748,141.321,0.047,15352,8102,飯土井,二股川,
986,38.769,141.33,65.418,38.769,141.33,0.03,15358,8087,昭和橋,二股川,
987,38.833,141.188,73.704,38.833,141.188,0.044,15256,8041,老松橋,金流川,
988,38.456,141.348,27.298,38.457,141.348,0.084,15371,8312,新明治橋,真野川,
989,38.516,141.159,53.288,38.516,141.158,0.089,15235,8269,名鰭,出来川,
990,38.537,141.055,10.242,38.537,141.055,0.024,15160,8254,笹舘橋,出来川,
991,38.601,141.02,45.022,38.601,141.02,0.037,15135,8208,大水門,田尻川,
992,38.635,140.944,8.139,38.636,140.944,0.068,15080,8183,長者,田尻川,
993,38.577,141.042,5.378,38.577,141.043,0.057,15151,8225,田中橋,美女川,
994,38.583,141.066,9.187,38.582,141.067,0.114,15168,8221,百々川(内),百々川,
995,38.581,141.066,58.655,38.582,141.066,0.083,15168,8222,百々川(外),百々川,
996,38.808,140.633,1.664,38.807,140.633,0.078,14856,8059,田沢川,田沢川,
997,38.627,141.053,6.85,38.627,141.053,0.041,15159,8189,萱刈橋,萱刈川,
998,38.641,141.098,115.436,38.642,141.098,0.114,15191,8179,大沼,小山田川,
999,38.651,141.062,95.712,38.65,141.062,0.079,15165,8172,富橋,小山田川,
1000,38.716,141.169,118.911,38.716,141.169,0.023,15242,8125,仮屋(上),荒川,
1001,38.716,141.169,118.911,38.716,141.17,0.109,15242,8125,仮屋(下),荒川,
1002,38.727,141.009,7.509,38.727,141.009,0.009,15127,8117,荒田澤橋,荒川,
1003,38.728,141.152,29.466,38.729,141.152,0.06,15230,8116,落堀,落堀川,
1004,38.753,141.21,90.632,38.754,141.211,0.078,15272,8098,大田沼,夏川,
1005,38.765,141.208,83.001,38.765,141.207,0.071,15270,8090,舟場,夏川,
1006,38.781,141.16,48.647,38.782,141.16,0.091,15236,8078,小谷地,夏川,
1007,38.766,140.815,17.361,38.766,140.814,0.051,14987,8089,大平,長崎川,
1008,38.742,140.931,40.204,38.743,140.931,0.074,15071,8106,御崎,長崎川,
1009,38.809,140.949,80.235,38.809,140.949,0.028,15084,8058,新橋,二迫川,
1010,38.884,140.84,7.538,38.884,140.84,0.037,15005,8004,深山岳,二迫川,
1011,38.881,140.865,21.965,38.881,140.865,0.046,15023,8006,文字,二迫川,
1012,38.774,141.042,146.344,38.775,141.043,0.095,15151,8083,荒瀬,二迫川,
1013,38.798,140.978,100.106,38.798,140.979,0.047,15105,8066,島巡橋,二迫川,
1014,38.828,140.985,88,38.828,140.986,0.073,15110,8044,岩ヶ崎,三迫川,
1015,38.817,141.027,120.752,38.818,141.027,0.071,15140,8052,鴫屋敷,三迫川,
1016,38.912,140.877,40.779,38.912,140.877,0.023,15032,7984,洞万,三迫川,
1017,38.719,141.133,63.088,38.719,141.132,0.062,15216,8123,沼口,荒川,
1018,38.723,141.155,115.203,38.724,141.155,0.121,15232,8120,荒川,荒川,
1019,38.623,141.127,52.727,38.623,141.127,0.012,15212,8192,高鳥,旧迫川,
1020,38.613,141.137,197.481,38.614,141.139,0.21,15219,8199,三方江,旧迫川,
1021,38.572,140.98,1.088,38.571,140.982,0.195,15106,8229,李埣,新江合川,
1022,38.778,141.098,11.672,38.778,141.098,0.053,15191,8080,城内(内,大江堀川,
1023,38.778,141.099,11.685,38.778,141.099,0.059,15192,8080,城内(外),大江堀川,
1024,38.638,141.069,7.258,38.638,141.069,0.029,15170,8181,泉谷(内),大水門川,
1025,38.638,141.069,7.258,38.638,141.069,0.029,15170,8181,泉谷(外),大水門川,
1026,38.772,140.999,19.59,38.771,141,0.084,15120,8085,栗駒公園線,芋埣川,
1027,38.578,141.07,21.485,38.578,141.07,0.054,15171,8224,佐賀川(内),その他,
1028,38.578,141.07,21.485,38.578,141.07,0.054,15171,8224,佐賀川(外),その他,
1029,38.524,140.909,548.781,38.524,140.909,0.034,15055,8263,高倉橋,鳴瀬川,
1030,38.527,140.948,568.96,38.527,140.949,0.094,15083,8261,三本木橋,鳴瀬川,
1031,38.531,141.005,706.255,38.531,141.007,0.188,15124,8258,下中ノ目,鳴瀬川,
1032,38.528,141.059,726.675,38.527,141.059,0.163,15163,8260,野田橋,鳴瀬川,
1033,38.497,141.119,752.694,38.497,141.119,0.057,15206,8283,竹谷,鳴瀬川,
1034,38.437,141.115,755.162,38.437,141.114,0.056,15203,8326,鹿島台（鳴瀬）,鳴瀬川,
1035,38.406,141.151,810.794,38.406,141.149,0.151,15229,8348,小野（鳴瀬）,鳴瀬川,
1036,38.38,141.172,1292.846,38.379,141.17,0.164,15244,8367,野蒜,鳴瀬川,
1037,38.541,140.61,28.466,38.541,140.611,0.05,14840,8251,辻倉,鳴瀬川,
1038,38.603,140.681,116.818,38.603,140.682,0.084,14891,8206,門沢,鳴瀬川,
1039,38.559,140.855,450.403,38.558,140.855,0.115,15016,8238,中新田,鳴瀬川,
1040,38.528,141.059,726.675,38.528,141.059,0.052,15163,8260,野田橋,鳴瀬川,
1041,0,0,0,38.342,141.168,-999,-999,-999,宮戸,鳴瀬川,
1042,38.431,140.891,81.789,38.432,140.891,0.083,15042,8330,高田橋,吉田川,SmallRiverRemove
1043,38.428,140.928,199.873,38.428,140.929,0.07,15069,8332,落合,吉田川,
1044,38.435,140.997,303.643,38.436,140.996,0.08,15118,8327,粕川,吉田川,
1045,38.44,141.069,438.305,38.44,141.068,0.081,15170,8324,幡谷,吉田川,
1046,38.437,141.113,458.21,38.437,141.113,0.026,15202,8326,鹿島台（吉田）,吉田川,
1047,38.405,141.149,473.504,38.405,141.149,0.031,15228,8349,小野（吉田）,吉田川,
1048,38.448,140.842,68.999,38.448,140.843,0.056,15007,8318,八合田,吉田川,
1049,38.431,140.881,80.184,38.432,140.881,0.086,15035,8330,高田中央橋,吉田川,
1050,38.572,140.884,13.185,38.572,140.884,0.053,15037,8229,下狼塚,多田川,
1051,38.544,140.851,61.148,38.544,140.852,0.118,15013,8249,向町,花川,
1052,38.56,140.82,34.737,38.561,140.82,0.066,14991,8237,清水,保野川,
1053,38.587,140.79,139.872,38.587,140.79,0.042,14969,8218,小泉,田川,
1054,38.565,140.803,13.515,38.564,140.803,0.077,14979,8234,月崎,長谷川,
1055,38.419,140.941,61.071,38.419,140.941,0.028,15078,8339,木樵橋,西川,
1056,38.415,140.89,46.721,38.415,140.889,0.069,15041,8342,新田橋,竹林川,
1057,38.41,140.86,26.484,38.411,140.86,0.074,15020,8345,一ノ関,宮床川,
1058,38.445,140.906,50.202,38.445,140.906,0.026,15053,8320,奥田(外),善川,
1059,38.459,140.883,46.418,38.459,140.883,0.03,15036,8310,塩浪,善川,
1060,38.555,140.94,18.535,38.554,140.94,0.102,15077,8241,西荒井,渋井川,
1061,38.581,140.903,23.863,38.581,140.904,0.054,15051,8222,荒田の目,渋川,
1062,38.553,140.916,45.324,38.554,140.916,0.059,15060,8242,矢目,名蓋川,
1063,38.562,140.61,21.07,38.562,140.611,0.055,14840,8236,唐府,唐府沢川,
1064,38.535,140.878,8.796,38.534,140.878,0.163,15033,8255,袋(内),河童川,
1065,38.534,140.88,8.887,38.534,140.879,0.075,15034,8256,袋(外),河童川,
1066,38.445,140.906,50.202,38.445,140.906,0.026,15053,8320,奥田(内),奥田川,
1067,38.438,140.885,2.452,38.439,140.886,0.103,15038,8325,天皇寺橋,洞堀川,
1068,38.234,140.706,122.731,38.234,140.706,0.023,14909,8472,湯元,名取川,
1069,38.217,140.815,421.383,38.217,140.814,0.065,14987,8484,余方,名取川,
1070,38.206,140.885,442.678,38.206,140.886,0.058,15038,8492,名取橋,名取川,
1071,38.205,140.913,764.896,38.205,140.912,0.106,15058,8493,袋原,名取川,
1072,38.178,140.953,778.496,38.178,140.954,0.069,15087,8512,閖上第二,名取川,
1073,38.177,140.815,6.469,38.177,140.815,0.038,14987,8513,中薬師,増田川,
1074,38.165,140.887,17.674,38.164,140.887,0.066,15039,8522,上増田,増田川,
1075,38.267,140.809,273.474,38.268,140.809,0.071,14983,8448,落合,広瀬川,
1076,38.235,140.89,306.582,38.236,140.889,0.083,15041,8471,広瀬橋,広瀬川,
1077,38.281,140.701,211.096,38.281,140.7,0.067,14905,8438,白沢,広瀬川,
1078,38.272,140.798,252.671,38.272,140.798,0.053,14975,8445,郷六,広瀬川,
1079,38.247,140.872,297.874,38.247,140.872,0.067,15028,8463,米ヶ袋,広瀬川,
1080,38.216,140.865,10.241,38.216,140.864,0.051,15023,8485,杉の下橋,笊川,
1081,38.212,140.899,10.853,38.212,140.899,0.034,15048,8488,北目橋,旧笊川,
1082,38.199,140.726,207.406,38.199,140.726,0.043,14923,8497,碁石,碁石川,
1083,38.14,140.884,17.805,38.139,140.884,0.065,15037,8540,館腰橋,川内沢川,
1084,38.13,140.841,10.728,38.131,140.841,0.126,15006,8547,河原橋,志賀沢川,
1085,38.363,140.673,73.96,38.363,140.674,0.098,14885,8379,定義,大倉川,
1086,38.208,140.651,37.342,38.208,140.651,0.049,14869,8491,馬引,太郎川,
1087,38.173,140.666,58.527,38.173,140.666,0.01,14880,8516,前川,前川,
1088,38.201,140.605,67.905,38.2,140.605,0.078,14836,8496,下原,北川,
1089,37.301,140.39,887.355,37.3,140.389,0.093,14681,9144,須賀川,阿武隈川,
1090,37.408,140.409,1856.456,37.408,140.409,0.04,14695,9067,阿久津,阿武隈川,
1091,37.516,140.405,2253.115,37.516,140.405,0.011,14692,8989,本宮,阿武隈川,
1092,37.595,140.462,2373.739,37.595,140.462,0.023,14733,8932,二本松,阿武隈川,
1093,37.749,140.469,3160.675,37.75,140.469,0.08,14738,8821,福島,阿武隈川,
1094,37.83,140.519,3632.684,37.83,140.519,0.027,14774,8763,伏黒,阿武隈川,
1095,37.869,140.61,4024.138,37.868,140.611,0.098,14840,8735,八幡,阿武隈川,
1096,37.926,140.751,4113.64,37.926,140.751,0.043,14941,8694,舘矢間,阿武隈川,
1097,37.922,140.762,4118.227,37.922,140.762,0.055,14949,8697,丸森,阿武隈川,
1098,37.959,140.791,4319.469,37.959,140.792,0.09,14970,8670,笠松,阿武隈川,
1099,38.019,140.802,4379.201,38.019,140.802,0.029,14978,8627,江尻,阿武隈川,
1100,38.078,140.824,5255.617,38.077,140.825,0.174,14994,8584,小山,阿武隈川,
1101,38.097,140.872,5258.721,38.096,140.872,0.072,15028,8571,岩沼,阿武隈川,
1102,38.051,140.912,5263.56,38.049,140.911,0.201,15057,8604,荒浜,阿武隈川,
1103,37.12,140.235,153.724,37.119,140.235,0.131,14570,9274,白河,阿武隈川,
1104,37.158,140.384,1.785,37.157,140.384,0.071,14677,9247,滑津,阿武隈川,
1105,37.928,140.694,4093.73,37.928,140.693,0.085,14900,8692,川張,阿武隈川,
1106,37.93,140.734,4109.588,37.931,140.734,0.126,14929,8691,山田,阿武隈川,
1107,37.913,140.666,4074.803,37.913,140.666,0.022,14880,8703,耕野,阿武隈川,
1108,37.994,140.444,123.85,37.994,140.444,0.035,14720,8645,関,白石川,
1109,37.995,140.458,47.16,37.995,140.457,0.059,14730,8644,萩崎,白石川,
1110,37.962,140.515,231.117,37.962,140.513,0.141,14771,8668,七ヶ宿ダム,白石川,
1111,37.977,140.559,296.509,37.977,140.559,0.009,14803,8657,小日向,白石川,
1112,38.062,140.77,774.267,38.062,140.77,0.025,14955,8596,船岡大橋,白石川,
1113,38.012,140.62,342.862,38.012,140.62,0.026,14847,8632,白石,白石川,
1114,38.037,140.697,675.003,38.036,140.696,0.101,14902,8614,北白川,白石川,
1115,38.049,140.737,684.773,38.049,140.737,0.038,14931,8605,大河原,白石川,
1116,38.012,140.62,342.862,38.011,140.62,0.091,14847,8632,白石,白石川,
1117,37.963,140.784,18.697,37.962,140.784,0.133,14965,8667,小田,小田川,
1118,37.894,140.802,62.657,37.894,140.802,0.029,14978,8717,山居,雉子尾川,
1119,38.095,140.731,28.583,38.095,140.731,0.027,14927,8572,本関場,荒川,
1120,38.067,140.74,82.158,38.068,140.739,0.087,14933,8592,新青川,荒川,
1121,38.083,140.663,93.954,38.083,140.663,0.044,14878,8581,松川橋,松川,
1122,37.902,140.774,88.584,37.902,140.774,0.028,14958,8711,内川,内川,
1123,38.09,140.816,28.823,38.09,140.816,0.046,14988,8576,四日市場,五間掘川,
1124,38.127,140.874,2.446,38.127,140.875,0.062,15030,8549,町田,五間掘川,
1125,38.115,140.927,17,38.114,140.928,0.103,15068,8558,下野郷,五間堀川,
1126,38.122,140.902,93.112,38.122,140.902,0.053,15050,8553,矢野目,五間堀川,
1127,38.006,140.634,57.863,38.006,140.634,0.027,14857,8636,郡山,斎川,
1128,37.987,140.776,8.475,37.987,140.775,0.065,14959,8650,横倉,尾袋川,
1129,38.04,140.644,6.757,38.039,140.643,0.092,14864,8612,福岡深谷,その他,
1130,38.272,140.962,174.77,38.271,140.961,0.092,15093,8445,福田大橋,七北田川,
1131,38.353,140.79,58.733,38.353,140.789,0.073,14969,8386,川崎,七北田川,
1132,38.327,140.813,84.913,38.327,140.813,0.019,14986,8405,小角,七北田川,
1133,38.317,140.887,138.081,38.317,140.887,0.042,15039,8412,市名坂,七北田川,
1134,38.305,140.944,173.272,38.304,140.944,0.098,15080,8421,岩切,七北田川,
1135,38.252,141.006,16.128,38.253,141.007,0.121,15125,8459,南水門（内）,七北田川,
1136,38.252,141.006,16.128,38.253,141.007,0.121,15125,8459,南水門（外）,七北田川,
1137,38.273,140.942,34.629,38.273,140.943,0.056,15079,8444,仙石(外),梅田川,
1138,38.272,140.922,14.521,38.271,140.922,0.072,15064,8445,苦竹,梅田川,
1139,38.273,140.942,34.629,38.273,140.943,0.056,15079,8444,仙石(内),高野川,
1140,37.877,140.92,6.789,37.877,140.92,0.015,15063,8729,砂子田,砂子田川,
1141,38.937,141.449,27.485,38.937,141.45,0.063,15444,7966,折壁,大川,
1142,38.901,141.565,142.115,38.9,141.564,0.092,15527,7992,大川本町,大川,
1143,38.91,141.545,125.159,38.91,141.545,0.048,15513,7985,切通,大川,
1144,38.887,141.558,20.784,38.887,141.557,0.059,15522,8002,平貝橋,神山川,
1145,38.785,141.498,56.839,38.786,141.498,0.065,15479,8075,花見橋,津谷川,
1146,38.435,141.23,46.922,38.436,141.23,0.066,15286,8327,赤井,定川,
1147,38.292,141.009,47.392,38.292,141.009,0.04,15127,8430,八幡橋,砂押川,
1148,38.303,140.981,23.104,38.303,140.982,0.084,15107,8422,勿来遊水地呑口,砂押川,
1149,38.31,140.978,13.395,38.31,140.978,0.062,15105,8417,勿来越流堤,砂押川,
1150,38.308,140.977,14.617,38.307,140.977,0.071,15104,8419,砂押越流堤,砂押川,
1151,38.303,140.983,38.724,38.303,140.982,0.076,15108,8422,勿来遊水地吐口,砂押川,
1152,38.298,140.987,45.094,38.298,140.987,0.02,15111,8426,砂押鴻池橋,砂押川,
1153,38.305,140.978,14.677,38.305,140.978,0.045,15105,8421,砂押遊水地吐口,砂押川,
1154,38.305,140.977,6.656,38.305,140.978,0.082,15104,8421,砂押遊水地呑口,砂押川,
1155,38.383,141.069,21.765,38.383,141.068,0.078,15170,8365,高城,高城川,
1156,38.44,141.069,438.305,38.441,141.068,0.171,15170,8324,品井沼,鶴田川,
1157,38.456,141.009,38.575,38.456,141.009,0.027,15127,8312,鶴田崎,鶴田川,
1158,38.678,141.447,30.518,38.679,141.447,0.071,15442,8152,八幡橋,八幡川,
1159,37.924,140.898,8.012,37.924,140.898,0.035,15047,8695,道合,坂元川,
1160,38.722,141.503,13.219,38.722,141.503,0.067,15483,8121,中在橋,伊里前川,
1161,38.927,141.583,30.079,38.927,141.583,0.032,15540,7973,鹿折大橋,鹿折川,
1162,37.931,140.905,6.576,37.931,140.905,0.03,15052,8690,戸花橋,戸花川,
1163,38.867,141.577,9.538,38.868,141.577,0.071,15536,8016,松崎,その他,
1164,39.738,140.091,21.027,39.738,140.091,0.022,14466,7389,寺内,新城川,
1165,39.798,140.078,51.54,39.798,140.078,0.042,14457,7346,笠岡,引欠川,
1166,40.255,140.494,79.558,40.254,140.494,0.098,14756,7017,小袴,草生津川,
1167,40.217,140.67,1173.571,40.217,140.67,0.042,14883,7044,十二所,米代川,
1168,40.233,140.581,1216.76,40.233,140.581,0.046,14819,7033,扇田橋,米代川,
1169,40.262,140.533,1359.588,40.261,140.533,0.095,14784,7012,吉富士,米代川,
1170,40.267,140.472,1651.826,40.268,140.472,0.082,14740,7008,下川沿,米代川,
1171,40.219,140.37,2098.808,40.219,140.37,0.031,14667,7043,鷹巣,米代川,
1172,40.208,140.306,8.247,40.208,140.306,0.045,14621,7051,坊沢,米代川,
1173,40.203,140.265,3456.129,40.203,140.264,0.072,14591,7054,七座,米代川,
1174,40.205,140.241,3755.584,40.205,140.24,0.084,14574,7053,二ツ井,米代川,
1175,40.223,140.17,3910.371,40.223,140.17,0.016,14523,7040,富根,米代川,
1176,40.194,140.048,4053.189,40.193,140.047,0.114,14435,7061,榊,米代川,
1177,40.22,140.026,4.8,40.221,140.027,0.146,14419,7042,向能代,米代川,
1178,40.244,140.741,1098.868,40.244,140.741,0.027,14934,7025,末広,米代川,
1179,40.184,140.783,551.486,40.184,140.782,0.055,14964,7068,花輪,米代川,
1180,40.227,140.591,1206.12,40.227,140.591,0.009,14826,7037,扇田,米代川,
1181,40.17,140.12,25.446,40.17,140.121,0.074,14487,7078,桧山,檜山川,
1182,40.29,140.267,107.74,40.29,140.267,0.056,14593,6992,藤琴,藤琴川,
1183,40.23,140.245,283.031,40.229,140.245,0.096,14577,7035,高岩橋,藤琴川,
1184,40.122,140.366,689.875,40.121,140.366,0.059,14664,7113,米内沢,阿仁川,
1185,40.066,140.415,644.475,40.065,140.414,0.118,14699,7153,阿仁前田,阿仁川,
1186,40.122,140.369,689.682,40.123,140.369,0.166,14666,7113,米内沢,阿仁川,
1187,40.177,140.292,1049.531,40.177,140.294,0.14,14611,7073,木戸石,阿仁川,
1188,40.148,140.323,715.126,40.148,140.324,0.093,14633,7094,新田目,阿仁川,
1189,40.203,140.277,1074.807,40.203,140.279,0.171,14600,7054,下田平,阿仁川,
1190,40.205,140.377,179.557,40.205,140.377,0.017,14672,7053,堂ヶ岱,小猿部川,
1191,40.203,140.383,178.694,40.204,140.383,0.065,14676,7054,脇神,小猿部川,
1192,40.231,140.362,29.193,40.232,140.362,0.085,14661,7034,田中,綴子川,
1193,40.276,140.392,25.89,40.275,140.393,0.095,14683,7002,大畑,糠沢川,
1194,40.424,140.347,37.42,40.425,140.348,0.147,14650,6895,黒滝沢,早口川,
1195,40.301,140.415,132.801,40.301,140.418,0.293,14699,6984,長戸呂,早口川,
1196,40.303,140.453,113.092,40.303,140.452,0.137,14727,6982,茂屋,岩瀬川,
1197,40.278,140.567,131.66,40.279,140.568,0.079,14809,7000,有浦,長木川,
1198,40.276,140.516,248.045,40.275,140.516,0.077,14772,7002,餅田,長木川,
1199,40.235,140.556,129.83,40.236,140.557,0.093,14801,7031,二井田,犀川,
1200,40.26,140.773,238.615,40.261,140.773,0.065,14957,7013,毛馬内2,大湯川,
1201,40.103,140.783,111.465,40.104,140.782,0.08,14964,7126,谷内,熊沢川,
1202,40.378,140.22,68.932,40.379,140.221,0.094,14559,6928,北鹿瀬,粕毛川,
1203,40.315,140.231,1.403,40.314,140.229,0.202,14567,6974,米田,粕毛川,
1204,40.069,140.299,224.195,40.068,140.299,0.087,14616,7151,杉花,小阿仁川,
1205,39.891,140.308,60.616,39.891,140.307,0.055,14622,7279,萩形,小阿仁川,
1206,40.112,140.305,280.827,40.114,140.307,0.305,14620,7120,三木田,小阿仁川,
1207,40.041,140.433,255.099,40.041,140.433,0.03,14712,7171,巻渕,小又川,
1208,40.04,140.644,15.301,40.042,140.644,0.269,14864,7172,土沢,小又川,
1209,40.303,140.555,64.723,40.303,140.554,0.09,14800,6982,松峰,下内川,
1210,40.341,140.592,39.62,40.341,140.592,0.031,14827,6955,白沢,下内川,
1211,40.27,140.762,176.631,40.269,140.761,0.144,14949,7006,毛馬内1,小坂川,
1212,40.358,140.733,90.125,40.356,140.731,0.229,14928,6943,矢柄平,小坂川,
1213,40.37,140.724,31.633,40.37,140.725,0.062,14922,6934,古遠部川,古遠部川,
1214,40.191,140.801,7.76,40.191,140.801,0.027,14977,7063,福士川,福士川,
1215,40.187,140.047,31.964,40.187,140.047,0.045,14434,7066,悪土川,悪土川,
1216,40.183,140.035,13.109,40.183,140.035,0.053,14426,7069,松長布,悪土川,
1217,40.233,140.808,16.267,40.233,140.807,0.067,14982,7033,間瀬川,間瀬川,
1218,40.203,140.238,3756.451,40.203,140.235,0.276,14572,7054,比井野川,比井野川,
1219,40.241,140.153,34.59,40.241,140.153,0.04,14511,7027,常盤,常盤川,
1220,39.076,140.453,268.199,39.076,140.454,0.055,14727,7866,岩館,雄物川,
1221,39.109,140.477,388.992,39.109,140.477,0.008,14744,7842,酒蒔,雄物川,
1222,39.19,140.451,445.453,39.189,140.451,0.07,14725,7784,柳田橋,雄物川,
1223,39.223,140.438,1043.992,39.223,140.438,0.019,14716,7760,大久保,雄物川,
1224,39.276,140.401,1205.584,39.276,140.4,0.069,14689,7722,雄物川橋,雄物川,
1225,39.341,140.44,1268.221,39.342,140.439,0.125,14717,7675,大上橋,雄物川,
1226,39.451,140.467,1855.564,39.451,140.468,0.065,14737,7596,大曲橋,雄物川,
1227,39.485,140.422,3347.803,39.484,140.422,0.162,14704,7571,神宮寺,雄物川,
1228,39.549,140.36,3623.84,39.549,140.361,0.061,14660,7525,刈和野橋,雄物川,
1229,39.527,140.277,3672.508,39.528,140.277,0.102,14600,7541,木原田,雄物川,
1230,39.533,140.23,3927.567,39.532,140.23,0.071,14566,7537,新波,雄物川,
1231,39.615,140.156,4038.571,39.615,140.157,0.079,14513,7478,椿川,雄物川,
1232,39.666,140.115,4379.011,39.665,140.114,0.118,14483,7441,石田坂,雄物川,
1233,39.692,140.09,4390.91,39.694,140.089,0.189,14465,7422,新屋,雄物川,
1234,39.058,140.434,86.941,39.057,140.434,0.071,14713,7879,下院内,雄物川,
1235,39.722,140.119,67.86,39.721,140.119,0.063,14486,7401,中島（指定）,旭川,
1236,39.728,140.123,67.384,39.729,140.123,0.059,14489,7396,中島,旭川,
1237,39.794,140.235,26.704,39.795,140.235,0.143,14570,7349,務沢,旭川,
1238,39.645,140.177,301.417,39.645,140.177,0.017,14528,7456,豊成,岩見川,
1239,39.653,140.245,231.862,39.654,140.245,0.06,14577,7450,坂本,岩見川,
1240,39.537,140.449,21.996,39.537,140.449,0.034,14724,7534,土川,土買川,
1241,39.458,140.365,87.985,39.458,140.364,0.064,14663,7591,南楢岡,楢岡川,
1242,39.926,140.709,133.819,39.926,140.709,0.034,14911,7254,五十曲,玉川,
1243,39.862,140.71,41.592,39.862,140.711,0.053,14912,7300,小和瀬,玉川,
1244,39.606,140.622,611.139,39.606,140.622,0.049,14848,7484,広久内,玉川,
1245,39.541,140.527,1104.295,39.541,140.527,0.009,14780,7531,長野,玉川,
1246,39.578,140.552,1045.401,39.578,140.554,0.174,14798,7504,下鶯野,玉川,
1247,39.58,140.567,639.622,39.581,140.568,0.138,14809,7503,岩瀬,玉川,
1248,39.748,140.713,404.586,39.747,140.711,0.214,14914,7382,石神,玉川,
1249,39.463,140.508,149.064,39.463,140.508,0.037,14766,7587,田茂木,丸子川,
1250,39.463,140.485,206.789,39.463,140.485,0.041,14750,7587,昭代橋,丸子川,
1251,39.459,140.551,68.468,39.46,140.551,0.111,14797,7590,仙北上郷,丸子川,
1252,39.284,140.615,198.046,39.284,140.614,0.05,14843,7716,岩瀬,横手川,
1253,39.363,140.512,251.235,39.363,140.511,0.073,14769,7659,寺村,横手川,
1254,39.327,140.56,226.092,39.327,140.561,0.052,14804,7685,朝倉,横手川,
1255,39.315,140.57,218.045,39.314,140.57,0.066,14811,7694,上の橋,横手川,
1256,39.337,140.424,42.364,39.337,140.424,0.034,14706,7678,町田,上溝川,
1257,39.192,140.384,53.278,39.193,140.384,0.071,14677,7782,元西,西馬音内川,
1258,39.206,140.516,549.931,39.206,140.517,0.093,14772,7772,岩崎橋,皆瀬川,
1259,39.017,140.656,114.034,39.017,140.656,0.045,14873,7908,小安,皆瀬川,
1260,39.184,140.544,279.596,39.184,140.542,0.151,14792,7788,戸波,皆瀬川,
1261,39.156,140.555,245.476,39.156,140.555,0.03,14800,7808,川連,皆瀬川,
1262,39.133,140.49,15.384,39.132,140.489,0.086,14753,7825,関口,戸沢川,
1263,39.072,140.494,89.378,39.072,140.493,0.083,14756,7869,三ツ村,高松川,
1264,39.003,140.469,144.784,39.003,140.469,0.057,14738,7918,川井,役内川,
1265,39.051,140.447,174.176,39.051,140.447,0.053,14722,7884,横堀,役内川,
1266,39.733,140.208,51.468,39.732,140.208,0.077,14550,7393,太平本町,太平川,
1267,39.703,140.126,104.619,39.704,140.126,0.064,14491,7414,牛島,太平川,
1268,39.694,140.133,25.111,39.693,140.133,0.088,14496,7421,仁井田,猿田川,
1269,39.656,140.217,16.745,39.656,140.218,0.062,14557,7448,和田,梵字川,
1270,39.774,140.367,61.211,39.774,140.368,0.065,14665,7363,中石滝沢,三内川,
1271,39.708,140.285,213.288,39.708,140.286,0.063,14606,7411,柳町,三内川,
1272,39.526,140.233,22.11,39.526,140.233,0.046,14568,7542,新波,新波川,
1273,39.616,140.353,83.576,39.616,140.354,0.046,14655,7477,荒川,荒川,
1274,39.553,140.405,31.203,39.554,140.405,0.06,14692,7522,殿屋敷,心像川,
1275,39.537,140.53,86.972,39.537,140.53,0.025,14782,7534,新町,斉内川,
1276,39.587,140.541,34.929,39.587,140.541,0.022,14790,7498,田中,入見内川,
1277,39.69,140.555,261.722,39.689,140.555,0.065,14800,7424,栃木橋,桧木内川,
1278,39.64,140.563,289.168,39.64,140.563,0.05,14806,7460,赤平橋,桧木内川,
1279,39.819,140.583,51.558,39.819,140.583,0.041,14820,7331,宮田,桧木内川,
1280,39.603,140.556,399.715,39.604,140.557,0.089,14801,7486,古城橋,桧木内川,
1281,39.665,140.555,286.566,39.664,140.555,0.065,14800,7442,門屋,桧木内川,
1282,39.748,140.599,127.393,39.748,140.599,0.028,14832,7382,吉田,桧木内川,
1283,39.483,140.502,42.003,39.482,140.503,0.107,14762,7573,高関上郷,窪堰川,
1284,39.488,140.558,45.873,39.488,140.558,0.036,14802,7569,板見内,川口川,
1285,39.481,140.566,8.182,39.482,140.566,0.083,14808,7574,本堂城回,矢島川,
1286,39.298,140.631,98.559,39.298,140.631,0.025,14855,7706,大松川,松川,
1287,39.198,140.583,254.361,39.198,140.583,0.032,14820,7778,安養寺,成瀬川,
1288,39.185,140.635,194.817,39.186,140.636,0.082,14858,7787,田子内橋,成瀬川,
1289,39.278,140.623,104.271,39.278,140.622,0.096,14849,7720,相野々,黒沢川,
1290,39.198,140.422,39.327,39.198,140.421,0.046,14704,7778,大戸川橋,羽後大戸川,
1291,39.353,140.499,95.477,39.354,140.499,0.065,14760,7666,横手大戸,横手大戸川,
1292,39.385,140.526,26.13,39.386,140.525,0.089,14779,7643,金沢西根,出川,
1293,39.792,140.116,38.739,39.793,140.116,0.07,14484,7350,五十丁,新城川,
1294,39.19,140.48,21.535,39.189,140.481,0.118,14746,7784,森,白子川,
1295,39.458,140.487,15.191,39.457,140.487,0.073,14751,7591,福見,福部内川,
1296,39.46,140.48,223.31,39.464,140.48,0.398,14746,7589,福部内水門内水位,福部内川,
1297,39.46,140.48,223.31,39.464,140.48,0.398,14746,7589,福部内水門外水位,福部内川,
1298,39.46,140.481,223.295,39.463,140.481,0.288,14747,7589,福部内遊水地,福部内川,
1299,39.556,140.26,205.942,39.556,140.26,0.046,14588,7520,淀川,淀川,
1300,39.627,140.312,55.995,39.627,140.312,0.019,14625,7469,船岡,淀川,
1301,39.606,140.319,76.42,39.606,140.318,0.07,14630,7484,境,淀川,
1302,39.652,140.152,3.969,39.652,140.152,0.012,14510,7451,地蔵川水門内水位,その他,
1303,39.233,140.148,357.809,39.232,140.148,0.072,14507,7753,矢島,子吉川,
1304,39.272,140.112,413.974,39.272,140.111,0.087,14481,7725,吉沢,子吉川,
1305,39.315,140.101,466.653,39.315,140.101,0.053,14473,7694,明法,子吉川,
1306,39.348,140.067,870.448,39.348,140.067,0.032,14449,7670,宮内,子吉川,
1307,39.374,140.067,910.518,39.375,140.067,0.083,14449,7651,二十六木橋,子吉川,
1308,39.394,140.048,1174.664,39.393,140.048,0.084,14435,7637,由利橋,子吉川,
1309,39.238,140.137,367.086,39.238,140.137,0.027,14499,7749,立石,子吉川,
1310,39.194,140.192,145.02,39.194,140.193,0.061,14539,7781,伏見,子吉川,
1311,39.415,140.07,229.625,39.414,140.071,0.097,14451,7622,館前,芋川,
1312,39.452,140.16,123.347,39.452,140.16,0.036,14516,7595,松本,芋川,
1313,39.427,140.233,76.008,39.427,140.232,0.056,14568,7613,見岫,芋川,
1314,39.324,140.176,259.395,39.325,140.176,0.082,14527,7687,山内,石沢川,
1315,39.342,140.092,297.56,39.343,140.092,0.077,14467,7674,鮎瀬,石沢川,
1316,39.301,140.291,155.575,39.301,140.291,0.034,14610,7704,老方,石沢川,
1317,39.158,140.241,127.068,39.158,140.241,0.04,14574,7807,小川,笹子川,
1318,39.156,140.242,126.848,39.156,140.242,0.041,14575,7808,楢ノ木平,笹子川,
1319,39.426,140.097,16.902,39.426,140.097,0.053,14470,7614,御橋,赤田川,
1320,39.438,140.233,6.168,39.438,140.232,0.06,14568,7605,高城,その他,
1321,39.838,140.067,27.303,39.839,140.068,0.105,14449,7317,金足堀内,馬踏川,
1322,39.862,140.085,18.426,39.862,140.086,0.054,14462,7300,槻木,豊川,
1323,39.903,140.122,24.873,39.903,140.121,0.068,14488,7270,葹田,井川,
1324,39.933,140.135,103.651,39.932,140.136,0.087,14498,7249,久保,馬場目川,
1325,39.951,140.159,44.969,39.951,140.159,0.034,14515,7236,黒土,内川川,
1326,40.085,140.138,82.527,40.086,140.138,0.067,14500,7139,下岩川,三種川,
1327,40.288,140.034,38.639,40.289,140.034,0.09,14425,6993,塙川,塙川,
1328,39.498,140.063,30.845,39.497,140.063,0.103,14446,7562,荒町,衣川,
1329,39.27,139.966,12.601,39.271,139.966,0.096,14376,7726,院内,大沢川,
1330,39.247,139.952,56.984,39.246,139.952,0.06,14366,7743,中野,白雪川,
1331,39.603,140.077,18.348,39.604,140.077,0.059,14456,7486,下浜羽川,下浜鮎川,
1332,40.099,140.073,117.961,40.099,140.073,0.035,14453,7129,森岳,三種川,
1333,40.263,140.037,1.561,40.264,140.038,0.136,14427,7011,竹生,竹生川,
1334,37.908,140.12,62.585,37.908,140.121,0.085,14487,8707,相生,最上川,
1335,37.94,140.13,191.738,37.94,140.13,0.048,14494,8684,上新田,最上川,
1336,37.987,140.141,284.21,37.986,140.141,0.089,14502,8650,糠野目,最上川,
1337,38.033,140.101,808.596,38.032,140.1,0.093,14473,8617,下田,最上川,
1338,38.066,140.065,984.099,38.066,140.064,0.051,14447,8593,西大塚,最上川,
1339,38.117,140.047,1361.841,38.117,140.047,0.057,14434,8556,小出,最上川,
1340,38.198,140.101,1611.565,38.198,140.101,0.028,14473,8498,菖蒲,最上川,
1341,38.305,140.138,1824.96,38.305,140.138,0.023,14500,8421,宮宿,最上川,
1342,38.349,140.199,1919.307,38.35,140.199,0.081,14544,8389,中沢,最上川,
1343,38.369,140.24,2074.649,38.369,140.24,0.046,14573,8375,中郷,最上川,
1344,38.342,140.283,2091.357,38.343,140.283,0.078,14604,8394,長崎,最上川,
1345,38.37,140.317,2787.335,38.37,140.319,0.143,14629,8374,蔵増,最上川,
1346,38.422,140.328,3494.831,38.421,140.328,0.072,14637,8337,下野,最上川,
1347,38.483,140.348,3750.214,38.482,140.348,0.071,14651,8293,稲下,最上川,
1348,38.59,140.369,3939.285,38.589,140.369,0.069,14666,8216,大石田,最上川,
1349,38.663,140.288,4333.255,38.662,140.288,0.134,14608,8163,堀内,最上川,
1350,38.702,140.233,4959.509,38.702,140.232,0.057,14568,8135,清水,最上川,
1351,38.728,140.226,4976.647,38.729,140.227,0.128,14563,8116,本合海,最上川,
1352,38.74,140.144,5939.029,38.739,140.144,0.068,14504,8108,古口,最上川,
1353,38.759,140.065,6112.555,38.759,140.064,0.051,14447,8094,高屋,最上川,
1354,38.82,139.976,6310.723,38.82,139.976,0.03,14383,8050,臼ヶ沢,最上川,
1355,38.88,139.909,6516.989,38.88,139.908,0.089,14335,8007,砂越,最上川,
1356,38.888,139.842,6556.501,38.887,139.842,0.136,14287,8001,両羽橋,最上川,
1357,38.91,139.824,6558.557,38.911,139.826,0.159,14274,7985,下瀬,最上川,
1358,38.097,139.981,106.476,38.096,139.981,0.062,14387,8571,平山,置賜野川,
1359,38.115,140.027,117.757,38.114,140.027,0.066,14420,8558,谷地橋,置賜野川,
1360,38.73,139.888,14.198,38.73,139.888,0.024,14320,8115,黒瀬川,黒瀬川,
1361,38.897,139.856,2.548,38.896,139.856,0.062,14297,7995,小牧川上流,小牧川,
1362,38.781,139.933,63.322,38.781,139.933,0.041,14352,8078,三和,京田川,
1363,38.828,139.867,101.784,38.828,139.868,0.077,14305,8044,三川落合,京田川,
1364,38.859,139.848,235.922,38.859,139.848,0.009,14291,8022,十五軒,京田川,
1365,38.884,139.838,249.485,38.884,139.838,0.018,14284,8004,広田,京田川,
1366,38.894,139.981,76.892,38.894,139.981,0.035,14387,7997,田沢,相沢川,
1367,38.885,139.942,173.53,38.886,139.943,0.085,14359,8003,石名坂,相沢川,
1368,38.667,140.145,29.807,38.668,140.145,0.072,14505,8160,明戸,角川,
1369,38.705,140.138,73.933,38.704,140.139,0.119,14500,8133,角川,角川,
1370,38.898,140.215,113.076,38.898,140.214,0.05,14555,7994,矢ノ沢,鮭川,
1371,38.867,140.228,178.547,38.868,140.229,0.084,14565,8016,八千代橋,鮭川,
1372,38.799,140.213,647.271,38.799,140.213,0.038,14554,8065,真木,鮭川,
1373,38.747,140.194,838.795,38.746,140.194,0.062,14540,8103,岩清水,鮭川,
1374,38.633,140.38,31.104,38.633,140.381,0.106,14674,8185,野黒沢,野尻川,
1375,38.597,140.494,116.648,38.597,140.494,0.057,14756,8211,母袋,丹生川,
1376,38.615,140.476,129.302,38.615,140.475,0.077,14743,8198,行沢,丹生川,
1377,38.606,140.374,238.698,38.605,140.374,0.142,14670,8204,岩ヶ袋,丹生川,
1378,38.615,140.453,174.967,38.615,140.454,0.064,14727,8198,正厳,丹生川,
1379,38.594,140.402,52.965,38.594,140.402,0.029,14690,8213,朧気,朧気川,
1380,38.503,140.397,12.788,38.503,140.396,0.07,14686,8278,林崎,大旦川,
1381,38.481,140.363,70.636,38.481,140.363,0.032,14662,8294,河島,大旦川,
1382,38.438,140.401,20.928,38.438,140.4,0.065,14689,8325,源氏坂,白水川,
1383,38.445,140.383,33.85,38.446,140.382,0.111,14676,8320,六田,白水川,
1384,38.447,140.369,34.292,38.447,140.369,0.057,14666,8319,蟹沢,白水川,
1385,38.42,140.383,29.354,38.421,140.382,0.111,14676,8338,若木,村山野川,
1386,38.413,140.48,41.749,38.414,140.48,0.09,14746,8343,上悪戸,乱川,
1387,38.392,140.419,77.515,38.393,140.419,0.075,14702,8358,川原子,乱川,
1388,38.394,140.348,84.307,38.395,140.348,0.139,14651,8357,大町,乱川,
1389,38.362,140.37,27.68,38.362,140.37,0.026,14667,8380,老野森,倉津川,
1390,38.37,140.344,51.258,38.37,140.344,0.027,14648,8374,蔵増,倉津川,
1391,38.392,139.997,86.927,38.392,139.996,0.06,14398,8358,中村,寒河江川,
1392,38.449,140.053,240.558,38.449,140.054,0.058,14439,8317,本道寺,寒河江川,
1393,38.416,140.181,386.874,38.416,140.181,0.022,14531,8341,睦合,寒河江川,
1394,38.397,140.284,481.507,38.397,140.284,0.052,14605,8355,西根,寒河江川,
1395,38.374,140.276,10.741,38.374,140.276,0.044,14599,8371,本町,沼川,
1396,38.37,140.184,131.924,38.37,140.183,0.091,14533,8374,荻野,月布川,
1397,38.099,140.308,72.367,38.099,140.307,0.066,14622,8569,楢下,須川,
1398,38.147,140.281,95.495,38.147,140.282,0.083,14603,8535,石堂,須川,
1399,38.219,140.31,275.904,38.219,140.31,0.047,14624,8483,坂巻,須川,
1400,38.231,140.298,340.359,38.231,140.297,0.085,14615,8474,前明石,須川,
1401,38.292,140.278,423.836,38.293,140.279,0.084,14601,8430,鮨洗,須川,
1402,38.342,140.31,668.102,38.343,140.31,0.08,14624,8394,寺津,須川,
1403,38.187,139.905,21.45,38.187,139.905,0.025,14332,8506,角楢沢,野川,
1404,38.098,139.988,106.681,38.098,139.989,0.073,14392,8570,平山,野川,
1405,38.015,140.053,68.73,38.015,140.054,0.066,14439,8630,中小松,犬川,
1406,38.07,140.123,16.504,38.07,140.123,0.017,14489,8590,漆山,織機川,
1407,38.051,140.16,71.231,38.051,140.16,0.049,14516,8604,赤湯,吉野川,
1408,37.915,140.069,218.912,37.914,140.068,0.092,14450,8702,館山,鬼面川,
1409,37.974,140.165,30.837,37.974,140.165,0.05,14519,8659,入生田,砂川,
1410,37.963,140.155,72.382,37.963,140.155,0.025,14512,8667,露藤,天王川,
1411,37.862,140.153,76.712,37.862,140.153,0.047,14511,8740,関根,羽黒川,
1412,37.922,140.131,89.683,37.922,140.131,0.057,14495,8697,花沢,羽黒川,
1413,37.919,140.102,23.431,37.919,140.102,0.028,14474,8699,中央,堀立川,
1414,38.765,139.898,103.434,38.765,139.898,0.046,14327,8090,藤島,藤島川,
1415,38.649,140.006,93.465,38.648,140.006,0.147,14405,8173,瀬場,立谷沢川,
1416,38.715,140.008,126.207,38.714,140.008,0.071,14406,8126,木の沢,立谷沢川,
1417,38.777,140.017,165.963,38.777,140.018,0.057,14413,8081,肝煎,立谷沢川,
1418,38.637,140.006,6.384,38.637,140.006,0.031,14405,8182,玉川第六ダム,立谷沢川,
1419,38.749,140.235,63.667,38.749,140.235,0.049,14570,8101,升形,升形川,
1420,38.767,140.29,12.398,38.767,140.289,0.065,14609,8088,堀端,指首野川,
1421,38.892,139.978,82.52,38.892,139.979,0.061,14385,7998,相沢橋,田沢川,
1422,38.84,140.391,27.434,38.84,140.391,0.046,14682,8036,朴沢,泉田川,
1423,38.903,140.226,39.387,38.903,140.226,0.059,14563,7990,小川内,小又川,
1424,38.608,140.165,98.973,38.607,140.164,0.087,14519,8203,肘折ダム,銅山川,
1425,38.653,140.21,126.164,38.653,140.211,0.073,14552,8170,木遠田,銅山川,
1426,38.687,140.234,184.554,38.687,140.235,0.087,14569,8146,通り,銅山川,
1427,38.71,140.553,45.302,38.711,140.554,0.079,14799,8129,赤倉,最上小国川,
1428,38.755,140.41,325.424,38.755,140.411,0.054,14696,8097,瀬見,最上小国川,
1429,38.691,140.278,392.741,38.691,140.278,0.041,14601,8143,長者原,最上小国川,
1430,38.542,140.337,42.73,38.542,140.337,0.044,14643,8250,深沢,富並川,
1431,38.44,140.402,20.908,38.44,140.403,0.093,14690,8324,日塔川,日塔川,
1432,38.383,140.403,22.644,38.382,140.404,0.085,14691,8365,山口,押切川,
1433,38.31,140.431,43.164,38.311,140.431,0.068,14711,8417,山寺,立谷川,
1434,38.323,140.349,56.328,38.324,140.35,0.135,14652,8408,清池,立谷川,
1435,38.244,140.39,61.045,38.243,140.389,0.098,14681,8465,防原,馬見ヶ崎川,
1436,38.247,140.367,68.817,38.248,140.367,0.167,14665,8463,松原,馬見ヶ崎川,
1437,38.299,140.337,133.421,38.299,140.338,0.111,14643,8425,長町,馬見ヶ崎川,
1438,38.317,140.32,139.499,38.318,140.32,0.072,14631,8412,田中,馬見ヶ崎川,
1439,38.299,140.349,41.487,38.299,140.349,0.044,14652,8425,青柳,村山高瀬川,
1440,38.098,140.21,16.587,38.098,140.211,0.051,14552,8570,小岩沢,前川,
1441,38.149,140.272,70.221,38.15,140.272,0.087,14596,8533,河崎,前川,
1442,38.159,140.283,79.373,38.159,140.282,0.056,14604,8526,北町,前川,
1443,38.884,140.333,39.64,38.884,140.333,0.031,14640,8004,金山,金山川,
1444,38.865,140.28,109.953,38.864,140.28,0.066,14602,8018,平岡橋,金山川,
1445,37.999,140.066,45.306,37.999,140.066,0.034,14448,8641,時田,黒川,
1446,38.015,140.247,31.046,38.014,140.247,0.077,14578,8630,二井宿,屋代川,
1447,38.005,140.199,62.381,38.005,140.2,0.063,14544,8637,中橋,屋代川,
1448,38.12,139.928,6.515,38.121,139.928,0.104,14349,8554,合地沢,合地沢川,
1449,37.913,139.915,58.674,37.913,139.915,0.042,14339,8703,広河原,広河原川,
1450,38.903,140.258,183.186,38.903,140.257,0.076,14586,7990,川ノ内,真室川,
1451,38.867,140.255,208.741,38.867,140.255,0.042,14584,8016,安久土,真室川,
1452,38.86,140.251,330.406,38.86,140.25,0.076,14581,8021,真室川,真室川,
1453,37.917,139.885,74.152,37.918,139.886,0.088,14318,8700,下屋地,置賜白川,
1454,38.019,139.973,241.462,38.019,139.973,0.029,14381,8627,小白川,置賜白川,
1455,38.013,139.967,238.247,38.013,139.967,0.038,14377,8631,手ノ子,置賜白川,
1456,38.027,139.987,274.541,38.027,139.987,0.019,14391,8621,椿,置賜白川,
